Latitude,Longitude,Time,Date,Number of Sats,GPS Speed (Kn),GPS True Heading,GPS Magnetic Variation,HDOP,C Magnetic Heading,C True Heading,Pitch Angle,Roll Angle,C Inside Temp (c),DFS Depth (m),DTB Height (m),Total Water Column (m),Batt Percent,Power Watts,Watt-Hours,Batt Volts,Batt Ampers,Batt State,Time to Empty,Current Step,Dist To Next (m),Next Speed (kn),Vehicle Speed (kn),Motor Speed CMD,Next Heading,Next Long,Next Lat,Next Depth (m),Depth Goal (m),Vehicle State,Error State,Distance to Track (m),Fin Pitch R,Fin Pitch L,Pitch Goal,Fin Yaw T,Fin Yaw B,Yaw Goal,Fin Roll,DVL-Depth (m),DVL -Altitude (m),DVL -Water Column (m),DVL-FixType,DVL-FixQuality,DVL-Temperature,Conductivity (mmhos/cm),Temperature (c),Salinity (ppt),Sound Speed (m/s),Date m/d/y   ,Time hh:mm:ss,Temp C,SpCond mS/cm,Sal ppt,Depth feet,pH,pH mV,Turbid+ NTU,Chl ug/L,BGA-PC cells/mL,ODOsat %,ODO mg/L,Battery volts,ROSEM Command Type
25.75844183,-80.37380167,38:01.2,9/25/20,12,0.068,320.43,-6.859488989,0.96,71.4,67.02,4.29,-2.95,30.3,0,2.04,2.04,96,22,519.7,16.3,-1.3,D,1591.2,0,25.64,2,0.07,128,212.74,-80.37394014,25.75824789,0,0,1,N,1.878448,83,83,11,250,250,170.914,0,9999.99,2.08,2.207,2,9,28.9,0,28.89999962,0.91,1507.49243,9/25/20,10:18:13,28.56,1.801,0.91,0.979,8.45,-86.6,-1.6,-0.7,1227,93.6,7.22,13.1,
25.7584415,-80.37380133,38:02.3,9/25/20,12,0.07,320.43,-6.859488989,0.96,71.7,67.31,4.29,-2.85,30.3,0,2.05,2.05,96,22,519.7,16.3,-1.3,D,1599.4,0,25.626,2,0.07,128,212.85,-80.37394014,25.75824789,0,0,1,N,1.829487,83,83,11,250,250,171.0045,0,9999.99,2.09,2.217,2,9,28.9,0,28.89999962,0.91,1507.49242,9/25/20,10:18:14,28.57,1.803,0.91,0.986,8.45,-86.3,-1.6,-0.5,-1851,93.6,7.22,13.1,
25.75844121,-80.37380087,38:03.2,9/25/20,12,0.079,320.43,-6.859488989,0.96,70.2,65.86,6.21,2.64,30.3,0.02,1.99,2.01,96,22,519.7,16.3,-1.3,D,1599.4,0,25.624,2,0.08,174,212.98,-80.37394014,25.75824789,0,0,1,N,1.829487,94,94,11,250,250,212.9703,0,9999.99,2.04,2.167,2,9,28.9,0,28.89999962,0.91,1507.4952,9/25/20,10:18:15,28.56,1.804,0.91,0.986,8.43,-85.6,-2.7,-0.8,-623,93.6,7.22,13.1,
25.75844229,-80.37379866,38:04.3,9/25/20,12,0.61,320.43,-6.859488989,0.96,73.1,68.67,4.16,0.64,30.3,0.03,1.93,1.96,96,22,519.7,16.3,-1.3,D,1599.4,0,25.846,2,0.36,174,213.24,-80.37394014,25.75824789,0,0,1,N,1.829487,82,82,11,250,250,213.2167,0,9999.99,1.97,2.097,2,9,28.9,0,28.89999962,0.91,1507.49754,9/25/20,10:18:16,28.56,1.804,0.91,0.988,8.46,-87.1,-2.8,-6.1,130,93.6,7.22,13.1,
25.75844349,-80.3737938,38:05.2,9/25/20,12,0.913,17.84,-6.859488989,1.14,78.1,73.47,3.11,4.45,30.3,0.02,1.87,1.89,96,39,519.7,16.3,-2.4,D,890.4,0,26.227,2,0.64,174,213.97,-80.37394014,25.75824789,0,0,1,N,1.829487,76,76,11,250,250,213.916,0,9999.99,1.9,2.027,2,9,28.9,0,28.89999962,0.91,1507.49543,9/25/20,10:18:17,28.56,1.807,0.91,0.986,8.45,-86.5,-1.7,3.4,865,93.7,7.22,13.2,
25.75844535,-80.37378744,38:06.2,9/25/20,11,1.218,51.09,-6.859488989,1.14,85.9,80.91,4.12,2.62,30.3,0.01,1.79,1.79,96,39,519.7,16.3,-2.4,D,890.4,0,26.757,2,0.64,174,214.86,-80.37394014,25.75824789,0,0,1,N,1.829487,80,80,11,250,250,214.8021,0,9999.99,1.82,1.947,2,9,28.9,0,28.89999962,0.91,1507.49475,9/25/20,10:18:18,28.56,1.807,0.91,1.01,8.43,-85.5,-2.1,-1.1,248,93.7,7.23,13.1,
25.75844714,-80.37377966,38:07.2,9/25/20,11,1.436,66.42,-6.859488989,0.96,93.5,88.07,4.63,4.07,30.3,0.01,1.7,1.71,96,39,519.7,16.3,-2.4,D,890.4,0,27.371,2,1.13,174,215.96,-80.37394014,25.75824789,0,0,1,N,1.829487,85,85,11,250,250,215.8507,0,9999.99,1.74,1.867,2,9,28.9,0,28.89999962,0.91,1507.49401,9/25/20,10:18:19,28.56,1.808,0.91,0.998,8.47,-87.4,-2.1,-5.9,-1719,93.7,7.23,13.2,
25.7584473,-80.37377098,38:08.3,9/25/20,12,1.541,73.3,-6.859488989,0.96,102.8,96.76,4.9,4.17,30.2,0.01,1.76,1.77,96,39,519.7,16.3,-2.4,D,890.4,0,27.905,2,1.38,174,217.38,-80.37394014,25.75824789,0,0,1,N,1.829487,86,86,11,250,250,217.2156,0,9999.99,1.8,1.927,2,9,28.9,0,28.89999962,0.91,1507.49443,9/25/20,10:18:20,28.55,1.809,0.91,1.006,8.44,-85.7,-0.1,-3,492,93.5,7.21,13.1,
25.75844643,-80.37376267,38:09.3,9/25/20,11,1.583,85.59,-6.859488989,1,113.5,106.68,4.97,5.22,30.2,0.01,1.82,1.83,96,38,519.6,16.3,-2.3,D,912.9,0,28.342,2,1.38,174,218.84,-80.37394014,25.75824789,0,0,1,N,1.829487,87,87,11,250,250,218.666,0,9999.99,1.86,1.987,2,9,28.9,0,28.89999962,0.91,1507.49446,9/25/20,10:18:21,28.54,1.81,0.91,0.99,8.46,-86.9,-2.3,-5.2,-340,93.5,7.21,13.2,
25.7584449,-80.37375589,38:10.3,9/25/20,11,1.542,97.12,-6.859488989,1.01,122,114.54,5.37,4.48,30.2,0.01,1.96,1.97,96,38,519.6,16.3,-2.3,D,912.9,0,28.642,2,1.41,174,220.11,-80.37394014,25.75824789,0,0,1,N,1.829487,89,89,11,250,250,219.9537,0,9999.99,2.01,2.137,2,9,28.9,0,28.89999962,0.91,1507.49409,9/25/20,10:18:22,28.51,1.81,0.91,0.994,8.45,-86.2,-1.9,-6.3,1731,93.6,7.22,13,
25.75844338,-80.37374883,38:11.3,9/25/20,12,1.488,106.13,-6.859488989,1.01,131.6,123.44,5.02,5.35,30.2,0.01,2.15,2.16,96,38,519.6,16.3,-2.3,D,912.9,0,28.976,2,1.41,174,221.39,-80.37394014,25.75824789,0,0,1,N,1.829487,89,89,11,250,250,221.2141,0,9999.99,2.2,2.327,2,9,28.9,0,28.89999962,0.91,1507.49387,9/25/20,10:18:23,28.48,1.812,0.91,0.983,8.46,-86.9,-2.4,-4,412,93.7,7.23,13.2,
25.75844018,-80.37374233,38:12.3,9/25/20,12,1.484,113.24,-6.859488989,1.01,140.9,132.12,5.03,5.52,30.2,0.01,2.32,2.32,96,38,519.6,16.3,-2.3,D,912.9,0,29.149,2,1.41,174,222.81,-80.37394014,25.75824789,0,0,1,N,1.829487,87,87,11,250,250,222.6369,0,9999.99,2.36,2.487,2,9,28.9,0,28.89999962,0.91,1507.49389,9/25/20,10:18:24,28.48,1.81,0.91,0.997,8.45,-86.7,-2.2,0,1164,93.6,7.23,13.2,
25.75843587,-80.37373626,38:13.3,9/25/20,10,1.433,120.71,-6.859488989,1.01,151,141.66,5.21,4.2,30.2,0,2.38,2.38,96,38,519.6,16.3,-2.3,D,918.7,0,29.219,2,1.42,174,224.33,-80.37394014,25.75824789,0,0,1,N,0.247796,87,87,11,250,250,224.891,0,9999.99,2.42,2.547,2,9,28.9,0,28.89999962,0.91,1507.49331,9/25/20,10:18:25,28.47,1.811,0.91,0.999,8.46,-86.8,-2.2,-5.5,-2732,93.7,7.24,13.2,
25.75843071,-80.37373151,38:14.3,9/25/20,12,1.507,131.75,-6.859488989,1.01,159.4,149.7,5.03,4.89,30.3,0,2.37,2.38,96,38,519.6,16.3,-2.3,D,911.7,0,29.151,2,1.42,175,225.78,-80.37394014,25.75824789,0,0,1,N,0.9896997,87,87,11,250,250,230.7375,0,9999.99,2.42,2.547,2,9,28.9,0,28.89999962,0.91,1507.49324,9/25/20,10:18:26,28.48,1.811,0.91,1.008,8.49,-88.8,-1.7,-8.3,2335,93.7,7.24,13.1,
25.75842554,-80.37372761,38:15.3,9/25/20,12,1.457,141.48,-6.859488989,0.96,168.4,158.46,5.08,5.99,30.3,0,2.39,2.39,96,38,519.6,16.3,-2.3,D,911.7,0,29.038,2,1.43,176,227.14,-80.37394014,25.75824789,0,0,1,N,1.662357,87,87,11,250,250,235.4214,0,9999.99,2.43,2.557,2,9,28.9,0,28.89999962,0.91,1507.493,9/25/20,10:18:28,28.51,1.81,0.91,0.99,8.48,-88.5,-1.2,-3.7,-571,93.7,7.23,13.1,
25.7584181,-80.37372377,38:16.3,9/25/20,12,1.512,147.51,-6.859488989,1.01,179.8,169.76,4.91,4.52,30.3,0,2.38,2.39,96,38,519.6,16.3,-2.3,D,911.7,0,28.77,2,1.45,177,228.86,-80.37394014,25.75824789,0,0,1,N,2.518099,87,87,11,250,250,241.155,0,9999.99,2.43,2.557,2,9,28.9,0,28.89999962,0.91,1507.4928,9/25/20,10:18:29,28.52,1.81,0.91,0.99,8.45,-86.7,-1.7,-2.8,-1314,93.6,7.22,13.2,
25.75841175,-80.37372195,38:17.3,9/25/20,11,1.542,158.05,-6.859488989,1.01,189,179.05,4.94,5.96,30.3,0,2.39,2.39,96,38,519.6,16.3,-2.3,D,911.7,0,28.45,2,1.43,178,230.18,-80.37394014,25.75824789,0,0,1,N,3.159327,87,87,11,250,250,245.2386,0,9999.99,2.43,2.557,2,9,28.9,0,28.89999962,0.91,1507.4928,9/25/20,10:18:29,28.52,1.81,0.91,0.99,8.45,-86.7,-1.7,-2.8,-1314,93.6,7.22,13.2,
25.75840156,-80.37372179,38:18.3,9/25/20,12,1.544,166.9,-6.859488989,1.01,198.3,188.58,5.05,4.87,30.3,0,2.38,2.38,96,41,519.6,16.3,-2.5,D,840.7,0,27.751,2,1.46,178,232,-80.37394014,25.75824789,0,0,1,N,3.961913,87,87,11,250,250,250.0322,0,9999.99,2.42,2.547,2,9,28.9,0,28.89999962,0.91,1507.49258,9/25/20,10:18:30,28.52,1.81,0.91,0.997,8.48,-88.3,-2.2,1,1900,93.6,7.22,13,
25.75839719,-80.37372282,38:19.3,9/25/20,12,1.66,177.83,-6.859488989,0.96,210.1,200.83,4.85,6.24,30.3,0,2.37,2.38,96,41,519.6,16.3,-2.5,D,840.7,0,27.373,2,1.5,179,232.66,-80.37394014,25.75824789,0,0,1,N,4.225484,87,87,11,250,250,251.5287,0,9999.99,2.42,2.547,2,9,28.9,0,28.89999962,0.91,1507.49261,9/25/20,10:18:32,28.54,1.809,0.91,1.007,8.47,-87.9,-2.8,-6,796,93.5,7.21,13.3,
25.75838952,-80.37372596,38:20.4,9/25/20,12,1.529,184.38,-6.859488989,0.96,219.6,210.79,4.98,6.04,30.2,0,2.35,2.35,96,41,519.6,16.3,-2.5,D,840.7,0,26.61,2,1.52,180,233.71,-80.37394014,25.75824789,0,0,1,N,4.603139,87,87,11,250,250,253.6058,0,9999.99,2.39,2.517,2,9,28.9,0,28.89999962,0.91,1507.49251,9/25/20,10:18:33,28.55,1.808,0.91,0.997,8.47,-87.7,-2,-2.5,365,93.5,7.21,13.3,
25.75838325,-80.37372924,38:21.4,9/25/20,11,1.729,195.51,-6.859488989,0.96,231.2,223.01,5.1,5.71,30.3,0,2.34,2.34,96,44,519.6,16.3,-2.7,D,786.3,0,25.935,2,1.5,181,234.53,-80.37394014,25.75824789,0,0,1,N,4.874579,86,86,11,250,250,255.0425,0,9999.99,2.38,2.507,2,9,28.9,0,28.89999962,0.91,1507.49251,9/25/20,10:18:33,28.55,1.808,0.91,0.997,8.47,-87.7,-2,-2.5,365,93.5,7.21,13.3,
25.7583776,-80.37373442,38:22.4,9/25/20,10,1.695,206.56,-6.859488989,0.96,241.7,234.07,5.09,5.97,30.3,0,2.21,2.21,96,44,519.6,16.3,-2.7,D,786.3,0,25.148,2,1.5,181,235.01,-80.37394014,25.75824789,0,0,1,N,4.946299,85,85,11,221,221,255.4158,0,9999.99,2.25,2.377,2,9,28.9,0,28.89999962,0.91,1507.49258,9/25/20,10:18:34,28.55,1.808,0.91,0.997,8.48,-88.2,-0.8,-1.5,-1155,93.4,7.21,13.1,
25.7583728,-80.373741,38:23.4,9/25/20,10,1.825,217.17,-6.859488989,0.96,250.8,243.62,5.12,4.33,30.3,0,2.14,2.15,96,44,519.6,16.3,-2.7,D,786.3,0,24.303,2,1.6,182,235.14,-80.37394014,25.75824789,0,0,1,N,4.86121,89,89,11,176,176,254.9735,0,9999.99,2.19,2.317,2,9,28.9,0,28.89999962,0.91,1507.49268,9/25/20,10:18:36,28.55,1.809,0.91,0.989,8.45,-86.7,-1.5,-11.6,3077,93.2,7.19,13.2,
25.75836831,-80.37374955,38:24.4,9/25/20,10,1.835,226.99,-6.859488989,0.96,257.4,250.52,5.36,3.63,30.3,0,2.15,2.15,96,44,519.6,16.3,-2.7,D,786.3,0,23.315,2,1.72,183,234.95,-80.37394014,25.75824789,0,0,1,N,4.608437,89,89,11,139,139,253.6331,0,9999.99,2.2,2.327,2,9,28.9,0,28.89999962,0.91,1507.49268,9/25/20,10:18:36,28.55,1.809,0.91,0.989,8.45,-86.7,-1.5,-11.6,3077,93.2,7.19,13.2,
25.75836628,-80.37375874,38:25.4,9/25/20,10,1.872,239.98,-6.859488989,0.96,259.4,252.6,3.94,3.13,30.3,0,2.27,2.27,96,47,519.5,16.3,-2.9,D,742.8,0,22.435,2,1.86,183,234.07,-80.37394014,25.75824789,0,0,1,N,4.092316,82,82,11,120,120,250.7788,0,9999.99,2.31,2.437,2,9,28.9,0,28.89999962,0.91,1507.49263,9/25/20,10:18:37,28.55,1.808,0.91,0.998,8.49,-89,-1.7,-3.9,1768,93.1,7.18,13.2,
25.75836398,-80.37376868,38:26.4,9/25/20,10,1.977,245.95,-6.859488989,0.96,259.1,252.29,3.12,4.39,30.2,0,2.33,2.33,96,47,519.5,16.3,-2.9,D,742.8,0,21.482,2,2,183,233.07,-80.37394014,25.75824789,0,0,1,N,3.561278,76,76,11,109,109,247.6846,0,9999.99,2.36,2.487,2,9,28.9,0,28.89999962,0.91,1507.49243,9/25/20,10:18:39,28.47,1.812,0.91,1.044,8.48,-88.1,-2.1,-4.9,-410,92.8,7.17,13,
25.75835862,-80.37378004,38:27.4,9/25/20,10,2.052,248.89,-6.859488989,0.96,258.1,251.25,2.73,4.66,30.2,0,2.35,2.35,96,47,519.5,16.3,-2.9,D,742.8,0,20.216,2,2.11,183,232.48,-80.37394014,25.75824789,0,0,1,N,3.15155,73,73,11,103,103,245.1896,0,9999.99,2.37,2.497,2,9,28.9,0,28.89999962,0.91,1507.49243,9/25/20,10:18:39,28.47,1.812,0.91,1.044,8.48,-88.1,-2.1,-4.9,-410,92.8,7.17,13,
25.75835701,-80.37378992,38:28.4,9/25/20,9,2.165,251.04,-6.859488989,1.03,256.1,249.16,2.23,4.36,30.2,0,2.38,2.38,96,47,519.5,16.3,-2.8,D,748.6,0,19.327,2,2.17,183,231.11,-80.37394014,25.75824789,0,0,1,N,2.548307,72,72,11,94,94,241.3563,0,9999.99,2.4,2.527,2,9,28.9,0,28.89999962,0.91,1507.49277,9/25/20,10:18:40,28.36,1.814,0.91,1.051,8.46,-87.1,-1.1,-5.9,895,92.9,7.19,13.1,
25.75835367,-80.37380047,38:29.4,9/25/20,9,2.182,251.06,-6.859488989,1.03,253.5,246.45,2.57,4.82,30.2,0,2.37,2.38,96,47,519.5,16.3,-2.8,D,748.6,0,18.276,2,2.2,183,229.94,-80.37394014,25.75824789,0,0,1,N,2.036973,72,72,11,91,91,237.973,0,9999.99,2.4,2.527,2,9,28.9,0,28.89999962,0.91,1507.49253,9/25/20,10:18:42,28.33,1.815,0.91,1.05,8.47,-87.8,-2,-7.9,-1013,92.9,7.19,13.1,
25.75834964,-80.37381217,38:30.4,9/25/20,9,2.198,250.7,-6.859488989,1.03,250.8,243.62,3.17,5.98,30.2,0,2.38,2.38,96,47,519.5,16.3,-2.8,D,748.6,0,17.095,2,2.22,183,228.56,-80.37394014,25.75824789,0,0,1,N,1.498935,76,76,11,90,90,234.3,0,9999.99,2.41,2.537,2,9,28.9,0,28.89999962,0.91,1507.49253,9/25/20,10:18:42,28.33,1.815,0.91,1.05,8.47,-87.8,-2,-7.9,-1013,92.9,7.19,13.1,
25.75834474,-80.37382309,38:31.4,9/25/20,9,2.164,248.52,-6.859488989,1.03,247.3,239.95,3.6,4.31,30.2,0,2.47,2.47,96,47,519.5,16.3,-2.8,D,748.6,0,15.918,2,2.18,182,227.43,-80.37394014,25.75824789,0,0,1,N,1.085863,78,78,11,92,92,231.4174,0,9999.99,2.5,2.627,2,9,28.9,0,28.89999962,0.91,1507.49264,9/25/20,10:18:43,28.39,1.812,0.91,1.036,8.48,-88.2,-0.5,-0.9,2370,92.9,7.19,13.2,
25.75834004,-80.37383342,38:32.5,9/25/20,10,2.164,245.55,-6.859488989,1.03,243.2,235.64,3.08,6.17,30.2,0,2.51,2.51,96,46,519.5,16.3,-2.8,D,759.3,0,14.807,2,2.21,182,226.21,-80.37394014,25.75824789,0,0,1,N,0.6733027,75,75,11,98,98,228.4986,0,9999.99,2.54,2.667,2,9,28.8,0,28.79999924,0.91,1507.2547,9/25/20,10:18:45,28.49,1.809,0.91,1.027,8.44,-85.9,-2,-0.7,733,92.9,7.17,13.1,
25.75833394,-80.3738436,38:33.5,9/25/20,10,2.158,241.62,-6.859488989,1.03,239.4,231.65,3.4,6.32,30.2,0,2.51,2.51,96,46,519.5,16.3,-2.8,D,759.3,0,13.602,2,2.16,182,225.3,-80.37394014,25.75824789,0,0,1,N,0.3966893,77,77,11,107,107,226.5265,0,9999.99,2.54,2.667,2,9,28.8,0,28.79999924,0.91,1507.2547,9/25/20,10:18:45,28.49,1.809,0.91,1.027,8.44,-85.9,-2,-0.7,733,92.9,7.17,13.1,
25.75832812,-80.37385436,38:34.5,9/25/20,10,2.298,240.12,-6.859488989,0.96,236.6,228.7,3.17,3.95,30.2,0,2.57,2.57,96,46,519.5,16.3,-2.8,D,759.3,0,12.385,2,2.18,182,223.92,-80.37394014,25.75824789,0,0,1,N,5.74E-02,76,76,11,109,109,224.0992,0,9999.99,2.6,2.727,2,9,28.8,0,28.79999924,0.91,1507.25456,9/25/20,10:18:46,28.5,1.809,0.91,1.024,8.49,-88.9,-2,0.1,291,92.9,7.17,13.1,
25.75832225,-80.37386344,38:35.5,9/25/20,10,2.13,237.82,-6.859488989,1.03,234.9,226.91,3.37,5.53,30.2,0,2.59,2.59,96,45,519.5,16.3,-2.8,D,766.5,0,11.285,2,2.15,182,222.89,-80.37394014,25.75824789,0,0,1,N,0.1531057,77,77,11,110,110,222.5914,0,9999.99,2.62,2.747,2,9,28.8,0,28.79999924,0.91,1507.25459,9/25/20,10:18:48,28.47,1.809,0.91,1.026,8.47,-87.8,-1.3,-8.3,807,92.9,7.18,13.1,
25.75831587,-80.37387263,38:36.5,9/25/20,9,2.186,233.32,-6.859488989,1.03,232.8,224.69,3.22,5.12,30.2,0,2.61,2.62,96,45,519.5,16.3,-2.8,D,766.5,0,10.141,2,2.16,182,221.81,-80.37394014,25.75824789,0,0,1,N,0.3335921,76,76,11,113,113,221.2999,0,9999.99,2.64,2.767,2,9,28.8,0,28.79999924,0.91,1507.25459,9/25/20,10:18:48,28.47,1.809,0.91,1.026,8.47,-87.8,-1.3,-8.3,807,92.9,7.18,13.1,
25.75830875,-80.37388142,38:37.5,9/25/20,9,2.203,231.73,-6.859488989,1.03,231,222.8,2.74,5.33,30.3,0,2.62,2.62,96,45,519.5,16.3,-2.8,D,766.5,0,8.965,2,2.2,182,220.99,-80.37394014,25.75824789,0,0,1,N,0.4301611,74,74,11,118,118,220.6099,0,9999.99,2.65,2.777,2,9,28.8,0,28.79999924,0.91,1507.25461,9/25/20,10:18:49,28.47,1.809,0.91,1.041,8.45,-86.7,-0.4,-6.6,1691,93,7.18,13.3,
25.75830065,-80.37389037,38:38.5,9/25/20,9,2.169,229.82,-6.859488989,1.03,230.5,222.27,2.81,5.74,30.2,0,2.64,2.64,96,45,519.5,16.3,-2.8,D,766.5,0,7.698,2,2.18,182,220.35,-80.37394014,25.75824789,0,0,1,N,0.4570312,72,72,11,122,122,220.4178,0,9999.99,2.66,2.787,2,9,28.8,0,28.79999924,0.91,1507.25467,9/25/20,10:18:50,28.51,1.809,0.91,1.049,8.47,-87.4,-0.6,-3.1,422,93.1,7.18,13,
25.75829211,-80.37389945,38:39.5,9/25/20,9,2.192,227.65,-6.859488989,1.03,230.2,221.95,3.17,5.01,30.2,0,2.64,2.64,96,46,519.4,16.3,-2.8,D,763.8,0,6.385,2,2.19,182,219.65,-80.37394014,25.75824789,0,0,1,N,0.4556308,76,76,11,121,121,220.4279,0,9999.99,2.67,2.797,2,9,28.8,0,28.79999924,0.91,1507.25465,9/25/20,10:18:52,28.53,1.807,0.91,1.052,8.46,-87.2,-1.9,-5,1142,93.1,7.19,13.1,
25.75828396,-80.37390817,38:40.5,9/25/20,9,2.186,226.32,-6.859488989,1.03,229.9,221.64,3.1,4.93,30.3,0,2.61,2.62,96,46,519.4,16.3,-2.8,D,763.8,1,11.289,2,2.21,181,104.81,-80.37379919,25.75825802,9.14E-02,9.14E-02,1,N,3.843373,160,160,-1.369897,5,5,111.0984,0,9999.99,2.64,2.767,2,9,28.8,0,28.79999924,0.91,1507.25497,9/25/20,10:18:53,28.55,1.806,0.91,1.052,8.46,-86.9,-1.1,-3,-1541,93.2,7.19,13.1,
25.75827678,-80.37391508,38:41.5,9/25/20,9,2.148,224.01,-6.859488989,1.03,223,214.37,-2.52,-6.26,30.3,0,2.62,2.62,96,46,519.4,16.3,-2.8,D,763.8,1,11.792,2,2.17,181,100.19,-80.37379919,25.75825802,9.14E-02,9.14E-02,1,N,3.109386,122,122,-1.375194,5,5,106.6785,0,9999.99,2.62,2.747,2,9,28.8,0,28.79999924,0.91,1507.25497,9/25/20,10:18:53,28.55,1.806,0.91,1.052,8.46,-86.9,-1.1,-3,-1541,93.2,7.19,13.1,
25.75827008,-80.37392253,38:42.5,9/25/20,9,1.804,224.01,-6.859488989,1.03,214.8,205.75,-3.7,5,30.3,0.01,2.54,2.55,96,46,519.4,16.3,-2.8,D,763.8,1,12.425,2,2.08,181,96.19,-80.37379919,25.75825802,9.14E-02,9.14E-02,1,N,2.418535,110,110,-1.359315,5,5,102.2578,0,9999.99,2.51,2.637,2,9,28.8,0,28.79999924,0.91,1507.2548,9/25/20,10:18:54,28.57,1.805,0.91,1.098,8.49,-88.8,-1.8,-5.5,-558,93.3,7.19,12.9,
25.75826231,-80.37392854,38:43.5,9/25/20,10,1.886,221.18,-6.859488989,0.96,207.2,197.81,-5.63,-3.23,30.2,0.04,2.48,2.52,96,42,519.4,16.3,-2.5,D,837,1,12.963,2,2.03,181,92.11,-80.37379919,25.75825802,9.14E-02,9.14E-02,1,N,1.611699,96,96,-0.8634385,5,5,96.82764,0,9999.99,2.44,2.567,2,9,28.8,0,28.79999924,0.91,1507.26068,9/25/20,10:18:56,28.51,1.808,0.91,1.527,8.5,-89.5,-0.8,-3.2,638,93.3,7.2,13.1,
25.75825205,-80.3739258,38:44.5,9/25/20,9,1.583,204.54,-6.859488989,1.01,195.6,185.8,-6.56,-1.85,30.3,0.09,2.41,2.5,96,42,519.4,16.3,-2.5,D,837,1,12.697,2,2.01,181,87,-80.37379919,25.75825802,9.14E-02,9.14E-02,1,N,0.4745178,84,84,-5.81E-02,5,5,88.83244,0,0.41,2.35,2.887,2,9,28.8,0,28.79999924,0.91,1507.26068,9/25/20,10:18:56,28.51,1.808,0.91,1.527,8.5,-89.5,-0.8,-3.2,638,93.3,7.2,13.1,
25.75824603,-80.37392709,38:45.5,9/25/20,8,1.544,204.54,-6.859488989,1.08,182.3,172.27,-4.93,-4.81,30.3,0.17,2.32,2.49,96,42,519.4,16.3,-2.5,D,837,1,12.878,2,1.92,181,84.06,-80.37379919,25.75825802,9.14E-02,9.14E-02,1,N,0.1869161,86,86,1.171269,5,5,84.099,0,0.52,2.27,2.917,2,9,28.8,0,28.79999924,0.9,1507.26602,9/25/20,10:18:57,28.32,1.785,0.9,1.823,8.46,-87.2,0.3,-4.6,14,93.4,7.23,13.1,
25.75823864,-80.37393553,38:46.5,9/25/20,8,2.537,204.54,-6.859488989,1.08,170.7,160.72,-4.11,-1.01,30.3,0.2,2.25,2.45,96,45,519.4,16.3,-2.7,D,773.5,1,13.823,2,1.84,181,81.03,-80.37379919,25.75825802,9.14E-02,9.14E-02,1,N,0.9615743,92,92,-0.6896871,5,5,78.58202,0,0.31,2.21,2.647,2,9,28.8,0,28.79999924,0.92,1507.29891,9/25/20,10:18:59,28,1.827,0.92,2.116,8.48,-87.8,-0.3,-2.2,-1328,93.6,7.29,13.1,
25.75823783,-80.37394439,38:47.5,9/25/20,8,2.075,204.54,-6.859488989,1.08,157.9,148.26,-3.07,0.43,30.3,0.23,2.23,2.46,96,45,519.4,16.3,-2.7,D,773.5,1,14.714,2,1.8,181,81.22,-80.37379919,25.75825802,9.14E-02,9.14E-02,1,N,0.9762851,96,96,-0.4532516,42,42,78.87897,0,0.34,2.2,2.667,2,9,28.8,0,28.79999924,0.92,1507.29891,9/25/20,10:18:59,28,1.827,0.92,2.116,8.48,-87.8,-0.3,-2.2,-1328,93.6,7.29,13.1,
25.75823943,-80.3739432,38:48.5,9/25/20,8,0.515,204.54,-6.859488989,1.08,148,138.81,-1.91,0.08,30.3,0.25,2.22,2.46,96,45,519.4,16.3,-2.7,D,773.5,1,14.569,2,1.76,182,81.84,-80.37379919,25.75825802,9.14E-02,9.14E-02,1,N,0.821104,103,103,-0.2139355,56,56,79.84911,0,0.34,2.2,2.667,2,9,28.8,0,28.79999924,0.92,1507.30576,9/25/20,10:19:00,27.91,1.829,0.92,2.187,8.49,-88.5,0.7,-5,2109,93.6,7.3,13.1,
25.75824407,-80.37393651,38:49.5,9/25/20,8,0.743,204.54,-6.859488989,1.08,139.4,130.71,-1.75,-0.17,30.3,0.25,2.21,2.46,96,45,519.4,16.3,-2.7,D,773.5,1,13.839,2,1.77,182,83.57,-80.37379919,25.75825802,9.14E-02,9.14E-02,1,N,0.3795325,103,103,-0.1129404,69,69,82.72011,0,0.33,2.19,2.647,2,9,28.8,0,28.79999924,0.92,1507.30826,9/25/20,10:19:01,27.84,1.831,0.92,2.174,8.47,-87.7,0.5,-4.5,-327,93.7,7.31,13.1,
25.75824664,-80.37394147,38:50.5,9/25/20,6,0.938,204.54,-6.859488989,3.38,130.8,122.69,-0.74,0.53,30.3,0.24,2.24,2.48,96,46,519.3,16.2,-2.8,D,762,1,14.305,2,1.8,182,84.93,-80.37379919,25.75825802,9.14E-02,9.14E-02,1,N,0.0655167,110,110,-0.2509742,82,82,84.97948,0,0.32,2.23,2.677,2,9,28.8,0,28.79999924,0.92,1507.3067,9/25/20,10:19:03,27.78,1.833,0.92,2.071,8.51,-89.7,-0.3,-0.4,1021,93.7,7.33,13.1,
25.75824251,-80.37393361,38:51.5,9/25/20,0,0.938,204.54,-6.859488989,99.99,125.4,117.68,-1.48,0.37,30.3,0.22,2.29,2.51,96,46,519.3,16.2,-2.8,D,762,1,13.572,2,1.88,182,82.7,-80.37379919,25.75825802,9.14E-02,9.14E-02,1,N,0.5831913,107,107,-0.528308,83,83,81.26662,0,9999.99,2.28,2.407,2,9,28.8,0,28.79999924,0.92,1507.3067,9/25/20,10:19:03,27.78,1.833,0.92,2.071,8.51,-89.7,-0.3,-0.4,1021,93.7,7.33,13.1,
25.75823884,-80.37392477,38:52.5,9/25/20,0,0.938,204.54,-6.859488989,99.99,116.3,109.27,-3.06,-2.02,30.2,0.18,2.35,2.53,96,46,519.3,16.2,-2.8,D,762,1,12.756,2,1.94,182,80.38,-80.37379919,25.75825802,9.14E-02,9.14E-02,1,N,1.070484,102,102,-0.8514792,5,5,77.81408,0,9999.99,2.33,2.457,2,9,28.7,0,28.79999924,0.92,1507.2985,9/25/20,10:19:04,27.77,1.833,0.92,1.999,8.46,-87,0.1,-3.5,1025,93.8,7.34,13.1,
25.75823665,-80.37391497,38:53.5,9/25/20,0,0.938,204.54,-6.859488989,99.99,102.9,96.85,-3.88,-2.52,30.2,0.18,2.4,2.58,96,45,519.3,16.3,-2.7,D,772.3,1,11.836,2,1.88,182,78.42,-80.37379919,25.75825802,9.14E-02,9.14E-02,1,N,1.424258,95,95,-0.9415902,41,41,75.34158,0,9999.99,2.37,2.497,2,9,28.7,0,28.70000076,0.92,1507.05642,9/25/20,10:19:05,27.77,1.834,0.92,1.949,8.5,-89.2,0.7,-2,1794,93.8,7.34,13.1,
25.75823633,-80.37390522,38:54.5,9/25/20,0,0.938,204.54,-6.859488989,99.99,92.2,86.85,-4.6,-1.18,30.3,0.17,2.41,2.57,96,45,519.3,16.3,-2.7,D,772.3,1,10.889,2,1.87,182,77.21,-80.37379919,25.75825802,9.14E-02,9.14E-02,1,N,1.556335,92,92,-1.060702,77,77,74.42796,0,9999.99,2.37,2.497,2,9,28.7,0,28.70000076,0.92,1507.05461,9/25/20,10:19:07,27.77,1.833,0.92,1.974,8.49,-88.3,0.8,-6,-301,93.8,7.33,13.1,
25.75823738,-80.37389568,38:55.5,9/25/20,8,0.938,204.54,-6.859488989,2.09,86.4,81.38,-4.84,0.65,30.3,0.18,2.3,2.48,96,45,519.3,16.3,-2.7,D,772.3,1,9.932,2,1.88,183,76.64,-80.37379919,25.75825802,9.14E-02,9.14E-02,1,N,1.526648,89,89,-0.8874696,100,100,74.63366,0,9999.99,2.26,2.387,2,9,28.7,0,28.70000076,0.92,1507.05461,9/25/20,10:19:07,27.77,1.833,0.92,1.974,8.49,-88.3,0.8,-6,-301,93.8,7.33,13.1,
25.758239,-80.37388631,38:56.5,9/25/20,8,0.938,204.54,-6.859488989,2.09,81.8,77.01,-3.1,0.08,30.3,0.22,2.24,2.46,96,45,519.3,16.3,-2.7,D,772.3,1,8.977,2,1.89,183,76.38,-80.37379919,25.75825802,9.14E-02,9.14E-02,1,N,1.427652,96,96,-0.5637401,118,118,75.31912,0,0.34,2.21,2.677,2,9,28.7,0,28.70000076,0.92,1507.05987,9/25/20,10:19:08,27.76,1.834,0.92,2.085,8.47,-87.4,1.2,-3.6,3463,93.8,7.34,13.1,
25.75824096,-80.37387669,38:57.5,9/25/20,8,0.938,204.54,-6.859488989,1.08,81.2,76.44,-1.24,1.28,30.3,0.25,2.22,2.47,96,46,519.3,16.2,-2.8,D,750.5,1,7.99,2,2.03,183,76.27,-80.37379919,25.75825802,9.14E-02,9.14E-02,1,N,1.289798,107,107,-0.1706956,127,127,76.27885,0,0.35,2.2,2.677,2,9,28.7,0,28.70000076,0.92,1507.06697,9/25/20,10:19:10,27.71,1.835,0.92,2.24,8.47,-87.3,0.2,-5.1,-1915,93.7,7.34,13.1,
25.75824334,-80.37386551,38:58.5,9/25/20,8,0.938,204.54,-6.859488989,1.08,80.9,76.15,0.48,2.85,30.3,0.27,2.05,2.32,96,46,519.3,16.2,-2.8,D,750.5,1,6.84,2,2.13,183,76.19,-80.37379919,25.75825802,9.14E-02,9.14E-02,1,N,1.121329,125,125,6.71E-02,129,129,77.45878,0,0.35,2.05,2.527,2,9,28.7,0,28.70000076,0.93,1507.08239,9/25/20,10:19:11,27.7,1.836,0.93,2.181,8.48,-88.1,0.6,-1.9,110,93.7,7.34,13.2,
25.75824559,-80.37385474,38:59.5,9/25/20,7,0.938,204.54,-6.859488989,1.18,81.2,76.44,-0.17,4.22,30.2,0.24,1.96,2.19,96,46,519.3,16.2,-2.8,D,750.5,1,5.732,2,2.18,183,76.05,-80.37379919,25.75825802,9.14E-02,9.14E-02,1,N,0.9547591,124,124,-0.269872,130,130,78.63192,0,0.32,1.96,2.407,2,9,28.7,0,28.70000076,0.93,1507.07898,9/25/20,10:19:12,27.7,1.836,0.93,2.058,8.5,-88.9,1.1,-7,-1186,93.8,7.35,13.1,
25.75824763,-80.37384455,39:00.6,9/25/20,0,0.938,204.54,-6.859488989,99.99,84.4,79.48,-2.8,5.52,30.3,0.19,2.01,2.2,96,46,519.2,16.2,-2.8,D,760.2,2,11.55,2,2.25,183,146.74,-80.37378129,25.75816077,9.14E-02,9.14E-02,1,N,4.796695,105,105,-0.6853236,250,250,139.6437,0,9999.99,2,2.127,2,9,28.7,0,28.70000076,0.93,1507.07898,9/25/20,10:19:12,27.7,1.836,0.93,2.058,8.5,-88.9,1.1,-7,-1186,93.8,7.35,13.1,
25.75824836,-80.37383287,39:01.6,9/25/20,0,0.938,204.54,-6.859488989,99.99,98.7,92.94,-4.15,22.8,30.3,0.16,2.04,2.21,96,46,519.2,16.2,-2.8,D,760.2,2,11.025,2,2.25,182,152.06,-80.37378129,25.75816077,9.14E-02,9.14E-02,1,N,3.644546,94,94,-1.0433,250,250,146.1096,0,9999.99,2.01,2.136423,2,9,28.6,0,28.70000076,0.92,1507.05639,9/25/20,10:19:13,27.7,1.835,0.92,1.96,8.46,-86.6,-0.1,-2.4,606,93.8,7.34,13.1,
25.75824696,-80.37382162,39:02.6,9/25/20,0,0.938,204.54,-6.859488989,99.99,112.2,105.47,-4,6.95,30.3,0.16,2.13,2.29,96,46,519.2,16.2,-2.8,D,760.2,2,10.4,2,2.15,182,157.15,-80.37378129,25.75816077,9.14E-02,9.14E-02,1,N,2.546726,95,95,-1.109611,250,250,152.9348,0,9999.99,2.09,2.216993,2,9,28.6,0,28.60000038,0.92,1506.81362,9/25/20,10:19:15,27.71,1.834,0.92,1.985,8.45,-86.1,0.8,-5,84,93.9,7.35,13.2,
25.75824351,-80.37381075,39:03.6,9/25/20,0,0.938,204.54,-6.859488989,99.99,125.3,117.59,-2.54,7.16,30.3,0.18,2.03,2.2,96,46,519.2,16.2,-2.8,D,760.2,2,9.662,2,1.88,182,162.22,-80.37378129,25.75816077,9.14E-02,9.14E-02,1,N,1.488979,103,103,-0.9058877,250,250,160.0452,0,9999.99,2,2.127,2,9,28.6,0,28.60000038,0.92,1506.81362,9/25/20,10:19:15,27.71,1.834,0.92,1.985,8.45,-86.1,0.8,-5,84,93.9,7.35,13.2,
25.75823872,-80.37380288,39:04.6,9/25/20,0,0.938,204.54,-6.859488989,99.99,137.7,129.12,-1.36,11.8,30.3,0.18,1.91,2.1,96,46,519.2,16.2,-2.8,D,762.3,2,8.933,2,1.88,182,165.99,-80.37378129,25.75816077,9.14E-02,9.14E-02,1,N,0.7856278,110,110,-0.8175669,250,250,164.9787,0,9999.99,1.9,2.029556,2,9,28.6,0,28.60000038,0.92,1506.81748,9/25/20,10:19:16,27.72,1.834,0.92,2.042,8.47,-87.3,0.2,-2.5,157,93.9,7.35,13.1,
25.7582329,-80.37379642,39:05.6,9/25/20,0,0.938,204.54,-6.859488989,99.99,151.3,141.94,-0.85,7.85,30.3,0.18,2.02,2.2,96,46,519.2,16.2,-2.8,D,762.3,2,8.162,2,1.84,182,169.3,-80.37378129,25.75816077,9.14E-02,9.14E-02,1,N,0.2447545,113,113,-0.8490786,240,240,168.8351,0,9999.99,2.01,2.137,2,9,28.6,0,28.60000038,0.92,1506.81803,9/25/20,10:19:17,27.73,1.834,0.92,1.988,8.45,-86.4,1.2,-3.4,4253,93.9,7.35,13.3,
25.75822597,-80.37379119,39:06.6,9/25/20,0,0.938,204.54,-6.859488989,99.99,163.5,153.68,-0.5,8.5,30.3,0.15,1.98,2.13,96,46,519.2,16.2,-2.8,D,753.7,2,7.317,2,1.78,182,172.21,-80.37378129,25.75816077,9.14E-02,9.14E-02,1,N,0.1690166,128,128,-1.120815,206,206,171.7979,0,0.48,1.98,2.587,2,9,28.6,0,28.60000038,0.92,1506.8152,9/25/20,10:19:18,27.74,1.833,0.92,1.918,8.46,-86.8,0.7,-1.3,-2336,93.9,7.35,13,
25.75821821,-80.37378741,39:07.6,9/25/20,0,0.938,204.54,-6.859488989,99.99,173,162.99,-2.3,9,30.3,0.13,2.09,2.22,96,46,519.2,16.2,-2.8,D,753.7,2,6.416,2,1.7,183,174.52,-80.37378129,25.75816077,9.14E-02,9.14E-02,1,N,0.4239177,107,107,-1.382394,170,170,173.6208,0,0.46,2.08,2.667,2,9,28.6,0,28.60000038,0.92,1506.81031,9/25/20,10:19:20,27.74,1.833,0.92,1.766,8.45,-86,1.3,-4.4,-3515,94,7.35,13.2,
25.75821038,-80.37378507,39:08.6,9/25/20,0,0.938,204.54,-6.859488989,99.99,179.6,169.56,-2.86,6.62,30.3,0.11,2.02,2.14,96,46,519.2,16.2,-2.8,D,753.7,3,18.189,2,1.79,183,130.55,-80.37364706,25.75810404,9.14E-02,9.14E-02,1,N,0.5225136,103,103,-1.582692,51,51,149.7381,0,0.45,2,2.577,2,9,28.6,0,28.60000038,0.92,1506.81031,9/25/20,10:19:20,27.74,1.833,0.92,1.766,8.45,-86,1.3,-4.4,-3515,94,7.35,13.2,
25.75820206,-80.37378304,39:09.6,9/25/20,7,0.938,204.54,-6.859488989,3.7,178.6,168.56,-3,3.33,30.4,0.12,2.11,2.23,96,47,519.2,16.2,-2.9,D,736.5,3,17.443,2,1.88,183,128.67,-80.37364706,25.75810404,9.14E-02,9.14E-02,1,N,4.178402,103,103,-1.493604,5,5,137.7096,0,0.48,2.08,2.687,2,9,28.6,0,28.60000038,0.92,1506.80672,9/25/20,10:19:21,27.74,1.832,0.92,1.79,8.47,-87.7,-0.5,-3.6,253,93.9,7.35,13.1,
25.75819374,-80.37377976,39:10.6,9/25/20,7,0.938,204.54,-6.859488989,1.85,164.7,154.84,-3.54,-12.6,30.4,0.15,2.06,2.21,96,47,519.2,16.2,-2.9,D,736.5,3,16.616,2,1.94,183,126.89,-80.37364706,25.75810404,9.14E-02,9.14E-02,1,N,3.451257,99,99,-1.211352,49,49,135.2831,0,0.5,2.03,2.657,2,9,28.6,0,28.60000038,0.92,1506.8099,9/25/20,10:19:22,27.73,1.834,0.92,1.874,8.44,-85.5,-1.3,-1.1,-1645,94,7.35,13,
25.75818621,-80.3737747,39:11.6,9/25/20,8,0.938,204.54,-6.859488989,1.85,156.3,146.72,-4.95,0.26,30.3,0.16,2.06,2.22,96,47,519.1,16.2,-2.9,D,740.5,3,15.712,2,1.92,183,125.56,-80.37364706,25.75810404,9.14E-02,9.14E-02,1,N,2.896592,89,89,-1.029972,75,75,133.6626,0,9999.99,2.02,2.147,2,9,28.6,0,28.60000038,0.92,1506.81372,9/25/20,10:19:23,27.73,1.833,0.92,1.902,8.46,-87,-0.4,-4.4,482,93.8,7.34,13.2,
25.75817873,-80.37376835,39:12.6,9/25/20,7,0.938,204.54,-6.859488989,1.85,148.4,139.19,-4.16,1.29,30.3,0.2,2.03,2.23,96,47,519.1,16.2,-2.9,D,740.5,3,14.715,2,1.91,183,124.36,-80.37364706,25.75810404,9.14E-02,9.14E-02,1,N,2.409166,92,92,-0.6628452,98,98,131.8983,0,0.33,1.99,2.447,2,9,28.6,0,28.60000038,0.92,1506.81856,9/25/20,10:19:25,27.72,1.832,0.92,2.143,8.45,-86.5,0.3,-1.7,352,93.8,7.34,13.3,
25.75817214,-80.37376157,39:13.6,9/25/20,6,0.938,204.54,-6.859488989,1.72,143.8,134.84,-1.95,1.09,30.3,0.22,2.02,2.24,96,47,519.1,16.2,-2.9,D,740.5,3,13.742,2,1.98,183,123.44,-80.37364706,25.75810404,9.14E-02,9.14E-02,1,N,2.026676,104,104,-0.3750223,120,120,129.3564,0,0.34,1.99,2.457,2,9,28.6,0,28.60000038,0.92,1506.81856,9/25/20,10:19:25,27.72,1.832,0.92,2.143,8.45,-86.5,0.3,-1.7,352,93.8,7.34,13.3,
25.75816593,-80.37375469,39:14.6,9/25/20,6,0.938,204.54,-6.859488989,1.72,142,133.15,-0.15,-0.06,30.3,0.26,1.95,2.2,96,47,519.1,16.2,-2.9,D,740.5,3,12.789,2,2.07,183,122.56,-80.37364706,25.75810404,9.14E-02,9.14E-02,1,N,1.691241,112,112,-2.65E-02,120,120,127.0746,0,0.35,1.94,2.417,2,9,28.6,0,28.60000038,0.92,1506.8279,9/25/20,10:19:26,27.72,1.833,0.92,2.228,8.44,-85.7,0.9,-4.9,1068,93.8,7.34,13.1,
25.75808915,-80.37377604,39:15.6,9/25/20,5,1.15,204.54,-6.859488989,2.12,139.8,131.09,0.41,1.58,30.3,0.24,1.93,2.17,96,46,519.1,16.2,-2.8,D,761,3,13.022,2,2.12,183,82.69,-80.37364706,25.75810404,9.14E-02,9.14E-02,1,N,6.949377,127,127,-0.1790258,59,59,74.15837,0,0.34,1.93,2.397,2,9,28.6,0,28.60000038,0.92,1506.82926,9/25/20,10:19:28,27.71,1.833,0.92,2.12,8.46,-87,0.8,-0.1,-2099,93.7,7.33,13.1,
25.75807804,-80.37375958,39:16.6,9/25/20,3,2.143,204.54,-6.859488989,3.7,133.2,124.92,-2.32,-7.73,30.3,0.22,2.01,2.22,96,46,519.1,16.2,-2.8,D,761,3,11.633,2,2.24,183,75.61,-80.37364706,25.75810404,9.14E-02,9.14E-02,1,N,7.375737,105,105,-0.4116454,63,63,72.46236,0,0.31,2,2.437,2,9,28.6,0,28.60000038,0.92,1506.82549,9/25/20,10:19:29,27.7,1.833,0.92,2.012,8.43,-84.9,1.5,-5,373,93.6,7.33,13.2,
25.75806678,-80.37374953,39:17.6,9/25/20,3,3.03,204.54,-6.859488989,3.7,125.3,117.59,-4.34,-2.41,30.3,0.19,2,2.18,96,46,519.1,16.2,-2.8,D,761,3,11.067,2,2.22,183,68.01,-80.37364706,25.75810404,9.14E-02,9.14E-02,1,N,8.098818,91,91,-0.7131948,5,5,69.78547,0,9999.99,1.97,2.097,2,9,28.6,0,28.60000038,0.93,1506.83058,9/25/20,10:19:30,27.66,1.836,0.93,2.018,8.46,-87,-0.4,-3.7,2958,93.6,7.33,13,
25.75806917,-80.37373726,39:18.6,9/25/20,4,2.797,204.54,-6.859488989,3.7,109.8,103.25,-4.04,-0.66,30.3,0.18,2.18,2.36,96,46,519.1,16.2,-2.8,D,759.1,3,9.83,2,2.14,183,66.77,-80.37364706,25.75810404,9.14E-02,9.14E-02,1,N,7.372543,94,94,-0.8534818,5,5,72.47562,0,9999.99,2.14,2.267,2,9,28.6,0,28.60000038,0.93,1506.83058,9/25/20,10:19:30,27.66,1.836,0.93,2.018,8.46,-87,-0.4,-3.7,2958,93.6,7.33,13,
25.75803777,-80.37369461,39:19.6,9/25/20,6,3.429,204.54,-6.859488989,3.62,95,89.48,-4.33,-0.22,30.3,0.2,2.3,2.5,96,46,519.1,16.2,-2.8,D,759.1,3,8.774,2,2.01,183,32.87,-80.37364706,25.75810404,9.14E-02,9.14E-02,1,N,8.746919,92,92,-0.6320871,34,34,67.58459,0,0.32,2.26,2.707,2,9,28.6,0,28.60000038,0.93,1506.82948,9/25/20,10:19:31,27.62,1.837,0.93,2.036,8.42,-84.5,0.4,-6.1,873,93.5,7.33,13.2,
25.75802517,-80.37366544,39:20.6,9/25/20,6,3.595,204.54,-6.859488989,3.63,84.4,79.48,-3.92,2.06,30.3,0.21,2.09,2.3,96,46,519.1,16.2,-2.8,D,759.1,3,8.96,2,1.92,183,11.85,-80.37364706,25.75810404,9.14E-02,9.14E-02,1,N,8.791038,92,92,-0.4559223,74,74,67.44059,0,0.34,2.05,2.517,2,9,28.5,0,28.5,0.93,1506.59356,9/25/20,10:19:33,27.56,1.839,0.93,2.187,8.42,-84.6,0.2,-7,-1775,93.4,7.33,13.2,
25.75802623,-80.37364853,39:21.6,9/25/20,6,3.926,204.54,-6.859488989,1.88,78.8,74.15,-2.78,1.62,30.3,0.23,2.03,2.27,96,46,519.1,16.2,-2.8,D,759.1,4,19.448,2,1.87,183,8.39,-80.37362021,25.75819926,9.14E-02,9.14E-02,1,N,1.895751,98,98,-0.2793432,46,46,7.013072,0,0.35,2.01,2.487,2,9,28.5,0,28.5,0.93,1506.59356,9/25/20,10:19:33,27.56,1.839,0.93,2.187,8.42,-84.6,0.2,-7,-1775,93.4,7.33,13.2,
25.7580357,-80.37375079,39:22.6,9/25/20,6,0.936,204.54,-6.859488989,1.5,71.9,67.51,-0.99,-0.72,30.3,0.26,1.99,2.25,96,47,519,16.2,-2.9,D,740.3,4,22.401,2,1.92,183,35.72,-80.37362021,25.75819926,9.14E-02,9.14E-02,1,N,8.285257,107,107,5.87E-02,95,95,41.12903,0,0.35,1.98,2.457,2,9,28.5,0,28.5,0.93,1506.59962,9/25/20,10:19:34,27.54,1.839,0.93,2.253,8.43,-85.1,-0.1,-3.6,-1299,93.3,7.32,12.9,
25.75803547,-80.37382754,39:23.6,9/25/20,6,0.829,204.54,-6.859488989,1.5,67.1,62.85,-0.03,1,30.3,0.25,2.04,2.29,96,47,519,16.2,-2.9,D,740.3,4,27.619,2,1.92,183,48.74,-80.37362021,25.75819926,9.14E-02,9.14E-02,1,N,15.73432,123,123,-3.48E-02,118,118,55.12502,0,0.33,2.03,2.487,2,9,28.5,0,28.5,0.93,1506.60156,9/25/20,10:19:36,27.51,1.841,0.93,2.139,8.42,-84.5,-0.4,-3,-791,93.1,7.31,13.1,
25.75803967,-80.37381029,39:24.7,9/25/20,3,0.798,204.54,-6.859488989,2.69,65.7,61.48,-0.61,-1.75,30.2,0.22,2.11,2.32,96,47,519,16.2,-2.9,D,740.3,4,26.025,2,1.97,183,47.01,-80.37362021,25.75819926,9.14E-02,9.14E-02,1,N,14.18489,112,112,-0.3911445,117,117,53.49926,0,9999.99,2.1,2.227,2,9,28.5,0,28.5,0.93,1506.60156,9/25/20,10:19:36,27.51,1.841,0.93,2.139,8.42,-84.5,-0.4,-3,-791,93.1,7.31,13.1,
25.75804632,-80.37379251,39:25.7,9/25/20,3,1.017,204.54,-6.859488989,2.69,66.1,61.87,-1.73,-0.1,30.3,0.2,2.12,2.32,96,46,519,16.2,-2.8,D,763,4,24.227,2,2.07,183,45.42,-80.37362021,25.75819926,9.14E-02,9.14E-02,1,N,12.62227,106,106,-0.6270362,88,88,52.08599,0,9999.99,2.11,2.237,2,9,28.5,0,28.5,0.93,1506.59246,9/25/20,10:19:37,27.51,1.84,0.93,2.022,8.45,-86,1.4,-2.2,1360,93,7.31,13.3,
25.75805925,-80.37377031,39:26.7,9/25/20,3,1.434,204.54,-6.859488989,2.69,63.4,59.23,-2.33,-1.57,30.3,0.17,2.14,2.31,96,46,519,16.2,-2.8,D,763,4,21.641,2,2.18,183,44,-80.37362021,25.75819926,9.14E-02,9.14E-02,1,N,10.83465,104,104,-0.8462408,94,94,51.09148,0,0.52,2.12,2.767,2,9,28.5,0,28.5,0.93,1506.58853,9/25/20,10:19:39,27.53,1.838,0.93,1.928,8.44,-85.6,0.1,-7.7,-712,92.9,7.3,13.2,
25.75806451,-80.37376053,39:27.7,9/25/20,0,1.434,204.54,-6.859488989,99.99,64.3,60.12,-3.35,-20.9,30.3,0.16,2.19,2.35,96,46,519,16.2,-2.8,D,763,4,20.542,2,2.24,182,43.16,-80.37362021,25.75819926,9.14E-02,9.14E-02,1,N,10.03321,99,99,-1.014536,88,88,50.42546,0,9999.99,2.14,2.267,2,9,28.5,0,28.5,0.93,1506.58853,9/25/20,10:19:39,27.53,1.838,0.93,1.928,8.44,-85.6,0.1,-7.7,-712,92.9,7.3,13.2,
25.7580698,-80.37375238,39:28.7,9/25/20,0,1.434,204.54,-6.859488989,99.99,59.5,55.4,4.73,2.04,30.3,0.13,2.12,2.25,96,46,519,16.2,-2.8,D,763,4,19.556,2,1.93,182,42.6,-80.37362021,25.75819926,9.14E-02,9.14E-02,1,N,9.354948,161,161,-1.264662,107,107,49.98197,0,2.66,2.16,4.951961,2,9,28.5,0,28.5,0.93,1506.58387,9/25/20,10:19:40,27.55,1.838,0.93,1.963,8.42,-84.1,-0.4,1.8,464,92.8,7.29,13.1,
25.75807492,-80.37374465,39:29.7,9/25/20,7,1.434,204.54,-6.859488989,24.38,60.2,56.09,-1.44,4.22,30.3,0.05,2.32,2.37,96,50,519,16.2,-3,D,698.5,4,18.613,2,1.88,182,42.03,-80.37362021,25.75819926,9.14E-02,9.14E-02,1,N,8.741147,135,135,-2.078886,105,105,49.56564,0,9999.99,2.34,2.467,2,9,28.5,0,28.5,0.93,1506.57594,9/25/20,10:19:41,27.56,1.838,0.93,1.654,8.44,-85.7,-0.2,-1.9,708,92.9,7.29,13.2,
25.75808063,-80.37373594,39:30.7,9/25/20,10,1.434,204.54,-6.859488989,0.98,59.8,55.7,-2.4,-7.29,30.3,0,2.36,2.37,96,50,519,16.2,-3,D,698.5,4,17.56,2,1.9,183,41.3,-80.37362021,25.75819926,9.14E-02,9.14E-02,1,N,8.064555,125,125,-2.688698,100,100,49.01138,0,9999.99,2.34,2.467,2,9,28.5,0,28.5,0.92,1506.54952,9/25/20,10:19:43,27.62,1.834,0.92,1.209,8.44,-85.4,-0.2,-0.3,-2079,92.9,7.28,13.2,
25.75808557,-80.37372766,39:31.8,9/25/20,10,1.434,204.54,-6.859488989,1.15,61.3,57.17,-4.29,-6.77,30.3,0.01,2.37,2.37,96,50,519,16.2,-3,D,698.5,4,16.601,2,1.91,183,40.41,-80.37362021,25.75819926,9.14E-02,9.14E-02,1,N,7.412009,102,102,-2.689115,89,89,48.23938,0,9999.99,2.34,2.467,2,9,28.5,0,28.5,0.92,1506.54952,9/25/20,10:19:43,27.62,1.834,0.92,1.209,8.44,-85.4,-0.2,-0.3,-2079,92.9,7.28,13.2,
25.75809031,-80.37371924,39:32.7,9/25/20,10,1.434,204.54,-6.859488989,0.96,62.9,58.74,-8,0.63,30.3,0.03,2.4,2.43,96,41,518.9,16.2,-2.5,D,841.7,4,15.656,2,1.99,183,39.3,-80.37362021,25.75819926,9.14E-02,9.14E-02,1,N,6.708921,80,80,-2.445159,81,81,47.13533,0,9999.99,2.35,2.477,2,9,28.5,0,28.5,0.92,1506.54903,9/25/20,10:19:44,27.69,1.832,0.92,1.294,8.43,-85.1,0.6,-1,-261,92.9,7.28,13.2,
25.75809493,-80.37371139,39:33.7,9/25/20,10,1.434,204.54,-6.859488989,0.96,60.3,56.19,-8.8,2.37,30.3,0.1,2.34,2.44,96,41,518.9,16.2,-2.5,D,841.7,4,14.764,2,1.98,183,38.21,-80.37362021,25.75819926,9.14E-02,9.14E-02,1,N,6.078424,71,71,-1.832357,85,85,45.97708,0,0.46,2.27,2.857,2,9,28.5,0,28.5,0.92,1506.55707,9/25/20,10:19:46,27.76,1.831,0.92,2,8.46,-86.6,0.1,-10.2,-896,93,7.27,13.1,
25.75810062,-80.37370315,39:34.7,9/25/20,8,1.434,204.54,-6.859488989,1.08,55.5,51.45,-5.51,-4.07,30.4,0.24,2.21,2.45,96,47,518.9,16.2,-2.8,D,747.3,4,13.759,2,2.07,183,37.14,-80.37362021,25.75819926,9.14E-02,9.14E-02,1,N,5.429458,81,81,-0.150087,119,119,44.76007,0,0.57,2.15,2.847,2,9,28.5,0,28.5,0.92,1506.55707,9/25/20,10:19:46,27.76,1.831,0.92,2,8.46,-86.6,0.1,-10.2,-896,93,7.27,13.1,
25.75815367,-80.37354041,39:35.8,9/25/20,7,2.371,62.84,-6.859488989,1.72,51.4,47.38,-0.47,-5.37,30.3,0.34,2.09,2.43,96,47,518.9,16.2,-2.8,D,747.3,4,9.464,2,2.1,183,302.39,-80.37362021,25.75819926,9.14E-02,9.14E-02,1,N,8.929248,105,105,0.9377136,29,29,326.108,0,0.48,2.06,2.667,2,9,28.5,0,28.5,0.92,1506.59373,9/25/20,10:19:47,27.73,1.831,0.92,2.478,8.42,-84.5,0.7,-1.6,-13,93,7.28,13.2,
25.75816111,-80.37353048,39:36.7,9/25/20,7,2.379,62.84,-6.859488989,1.72,41.8,37.76,-0.74,-12.8,30.3,0.38,2.01,2.38,96,47,518.9,16.2,-2.8,D,747.3,4,9.937,2,2.13,183,295.27,-80.37362021,25.75819926,9.14E-02,9.14E-02,1,N,9.708347,100,100,1.37356,38,38,323.739,0,0.49,2.01,2.625271,2,9,28.5,0,28.5,0.92,1506.60702,9/25/20,10:19:48,27.7,1.832,0.92,2.715,8.45,-86.2,-0.1,-3.5,-157,93,7.28,13,
25.75817124,-80.37352245,39:37.8,9/25/20,7,2.54,62.84,-6.859488989,1.18,31.1,26.93,-1.37,0.99,30.3,0.36,2.09,2.45,96,47,518.9,16.2,-2.8,D,747.3,4,10.275,2,2.11,182,287.65,-80.37362021,25.75819926,9.14E-02,9.14E-02,1,N,10.22833,98,98,1.169093,49,49,322.2808,0,0.46,2.08,2.667,2,9,28.5,0,28.5,0.92,1506.61068,9/25/20,10:19:50,27.68,1.833,0.92,2.572,8.44,-85.6,0.1,-3.8,-242,93.1,7.29,13,
25.75818631,-80.37351469,39:38.7,9/25/20,7,2.909,62.84,-6.859488989,1.18,20.2,15.82,-1.61,-1.77,30.3,0.33,2.1,2.43,96,45,518.9,16.2,-2.8,D,767.9,4,10.665,2,2.05,182,277.76,-80.37362021,25.75819926,9.14E-02,9.14E-02,1,N,10.59389,98,98,0.8469192,62,62,321.3118,0,0.45,2.09,2.667,2,9,28.5,0,28.5,0.92,1506.61068,9/25/20,10:19:50,27.68,1.833,0.92,2.572,8.44,-85.6,0.1,-3.8,-242,93.1,7.29,13,
25.75820253,-80.37350194,39:39.7,9/25/20,7,3.459,51.67,-6.859488989,3.95,11.3,6.71,-1.01,-1.28,30.3,0.31,2.11,2.42,96,45,518.9,16.2,-2.8,D,767.9,4,11.851,2,1.99,182,268.24,-80.37362021,25.75819926,9.14E-02,9.14E-02,1,N,11.40468,103,103,0.7129028,70,70,319.2996,0,0.43,2.1,2.657,2,9,28.5,0,28.5,0.92,1506.60226,9/25/20,10:19:51,27.69,1.832,0.92,2.511,8.42,-84.7,-1.2,0.6,-595,93.1,7.29,13.1,
25.758212,-80.37350154,39:40.7,9/25/20,0,3.459,51.67,-6.859488989,99.99,4.3,359.55,-0.88,0.52,30.3,0.3,2.13,2.42,96,45,518.9,16.2,-2.8,D,767.9,5,13.192,2,1.98,182,310.09,-80.37360231,25.75828841,9.14E-02,9.14E-02,1,N,11.46659,105,105,0.5045891,74,74,315.1523,0,0.4,2.12,2.647,2,9,28.5,0,28.5,0.92,1506.5984,9/25/20,10:19:53,27.7,1.83,0.92,2.355,8.43,-84.9,0.3,0.8,571,93.3,7.3,13.2,
25.7582212,-80.37350242,39:41.7,9/25/20,0,3.459,51.67,-6.859488989,99.99,355.9,350.96,-0.59,0.36,30.3,0.27,2.13,2.4,96,44,518.8,16.2,-2.7,D,783.5,5,12.487,2,2,182,306.76,-80.37360231,25.75828841,9.14E-02,9.14E-02,1,N,11.21341,108,108,0.2355464,85,85,315.7556,0,0.37,2.12,2.617,2,9,28.5,0,28.5,0.92,1506.5984,9/25/20,10:19:53,27.7,1.83,0.92,2.355,8.43,-84.9,0.3,0.8,571,93.3,7.3,13.2,
25.75822991,-80.3735044,39:42.8,9/25/20,0,3.459,51.67,-6.859488989,99.99,350.4,345.34,-0.71,-0.2,30.3,0.24,2.14,2.38,96,44,518.8,16.2,-2.7,D,783.5,5,11.766,2,2.01,182,303.56,-80.37360231,25.75828841,9.14E-02,9.14E-02,1,N,10.85259,109,109,-9.06E-02,93,93,316.6461,0,0.35,2.13,2.607,2,9,28.5,0,28.5,0.92,1506.59173,9/25/20,10:19:54,27.71,1.831,0.92,2.266,8.44,-85.4,-0.6,-6.7,1018,93.3,7.31,12.9,
25.7582387,-80.37350742,39:43.7,9/25/20,0,3.459,51.67,-6.859488989,99.99,343.6,338.41,-0.86,-1.43,30.3,0.2,2.16,2.36,96,44,518.8,16.2,-2.7,D,783.5,5,10.993,2,2.01,182,300.19,-80.37360231,25.75828841,9.14E-02,9.14E-02,1,N,10.38906,112,112,-0.4148907,39,39,317.8474,0,0.32,2.15,2.597,2,9,28.5,0,28.5,0.92,1506.58506,9/25/20,10:19:56,27.71,1.831,0.92,2.078,8.41,-83.9,-0.6,-2.8,-1097,93.4,7.31,13.1,
25.75824715,-80.37351127,39:44.8,9/25/20,0,3.459,51.67,-6.859488989,99.99,337.3,332.01,-1.9,-6.26,30.3,0.19,2.17,2.36,96,44,518.8,16.2,-2.7,D,783.5,5,10.206,2,2.05,182,296.71,-80.37360231,25.75828841,9.14E-02,9.14E-02,1,N,9.863814,107,107,-0.6242485,71,71,319.2924,0,9999.99,2.16,2.287,2,9,28.5,0,28.5,0.92,1506.58506,9/25/20,10:19:56,27.71,1.831,0.92,2.078,8.41,-83.9,-0.6,-2.8,-1097,93.4,7.31,13.1,
25.75825528,-80.37351659,39:45.7,9/25/20,0,3.459,51.67,-6.859488989,99.99,329.9,324.51,-3.09,-0.12,30.3,0.17,2.17,2.34,96,44,518.8,16.2,-2.7,D,784,5,9.341,2,2.03,182,293.23,-80.37360231,25.75828841,9.14E-02,9.14E-02,1,N,9.19358,100,100,-0.7940861,111,111,321.2776,0,9999.99,2.15,2.277,2,9,28.5,0,28.5,0.92,1506.57781,9/25/20,10:19:57,27.71,1.83,0.92,1.999,8.44,-85.4,-0.5,-0.4,2081,93.4,7.31,13.2,
25.75826307,-80.37352313,39:46.8,9/25/20,0,3.459,51.67,-6.859488989,99.99,326.1,320.66,-3.06,-1.05,30.3,0.16,2.08,2.24,96,44,518.8,16.2,-2.7,D,784,5,8.415,2,2,182,289.56,-80.37360231,25.75828841,9.14E-02,9.14E-02,1,N,8.387499,101,101,-0.9095908,137,137,323.8933,0,9999.99,2.05,2.177,2,9,28.5,0,28.5,0.92,1506.57472,9/25/20,10:19:59,27.74,1.83,0.92,1.958,8.43,-84.8,0.9,-1.3,-1344,93.5,7.32,13.2,
25.75827077,-80.37352963,39:47.7,9/25/20,0,3.459,51.67,-6.859488989,99.99,326.9,321.47,-2.9,2.95,30.3,0.19,2.05,2.23,96,44,518.8,16.2,-2.7,D,784,5,7.538,2,2.08,182,285.08,-80.37360231,25.75828841,9.14E-02,9.14E-02,1,N,7.608674,100,100,-0.6852691,150,150,326.6834,0,9999.99,2.02,2.147,2,9,28.5,0,28.5,0.92,1506.57472,9/25/20,10:19:59,27.74,1.83,0.92,1.958,8.43,-84.8,0.9,-1.3,-1344,93.5,7.32,13.2,
25.75827884,-80.37353573,39:48.8,9/25/20,0,3.459,51.67,-6.859488989,99.99,329,323.59,-2.17,6.22,30.2,0.21,2.02,2.23,96,44,518.8,16.2,-2.7,D,781.9,5,6.752,2,2.12,182,279.07,-80.37360231,25.75828841,9.14E-02,9.14E-02,1,N,6.845144,102,102,-0.4123193,151,151,329.6949,0,9999.99,2,2.127,2,9,28.5,0,28.5,0.92,1506.57942,9/25/20,10:20:00,27.75,1.829,0.92,2.015,8.42,-84.5,0.5,-1.8,-729,93.5,7.32,13.1,
25.75828723,-80.37354237,39:49.7,9/25/20,0,3.459,51.67,-6.859488989,99.99,330.3,324.91,-1.14,6.21,30.2,0.21,2.06,2.27,96,44,518.8,16.2,-2.7,D,781.9,5,6.003,2,2.34,182,271.26,-80.37360231,25.75828841,9.14E-02,9.14E-02,1,N,6.02689,108,108,-0.3351793,137,137,333.254,0,0.31,2.04,2.477,2,9,28.5,0,28.5,0.92,1506.58381,9/25/20,10:20:02,27.76,1.828,0.92,2.093,8.42,-84.5,-0.6,-1.1,823,93.6,7.32,13,
25.75829604,-80.37354912,39:50.8,9/25/20,0,3.459,51.67,-6.859488989,99.99,333.1,327.75,0.06,6.67,30.2,0.2,1.99,2.2,96,44,518.8,16.2,-2.7,D,781.9,5,5.394,2,2.35,182,260.95,-80.37360231,25.75828841,9.14E-02,9.14E-02,1,N,5.181684,126,126,-0.4128337,167,167,337.315,0,9999.99,1.99,2.117,2,9,28.5,0,28.5,0.92,1506.58381,9/25/20,10:20:02,27.76,1.828,0.92,2.093,8.42,-84.5,-0.6,-1.1,823,93.6,7.32,13,
25.75830601,-80.37355583,39:51.8,9/25/20,3,3.459,51.67,-6.859488989,2.57,336.4,331.1,-1.25,10.6,30.2,0.17,1.96,2.13,96,44,518.8,16.2,-2.7,D,781.9,6,17.677,2,2.33,182,273.15,-80.37373207,25.75831474,9.14E-02,9.14E-02,1,N,2.821835,111,111,-0.8347383,5,5,269.1287,0,9999.99,1.96,2.087,2,9,28.5,0,28.5,0.92,1506.58032,9/25/20,10:20:03,27.75,1.829,0.92,2.036,8.4,-83.1,-0.4,-6.5,-361,93.6,7.32,13.3,
25.75831505,-80.37356225,39:52.8,9/25/20,0,3.459,51.67,-6.859488989,99.99,326.6,321.16,-2.45,-13.8,30.2,0.14,2.12,2.26,96,45,518.7,16.2,-2.7,D,777.7,6,17.007,2,2.31,181,269.88,-80.37373207,25.75831474,9.14E-02,9.14E-02,1,N,3.677412,105,105,-1.132848,5,5,264.0967,0,9999.99,2.1,2.227,2,9,28.5,0,28.5,0.92,1506.57256,9/25/20,10:20:05,27.77,1.828,0.92,1.844,8.41,-83.6,-0.9,-3.4,-1389,93.6,7.32,13.2,
25.75832194,-80.37356963,39:53.8,9/25/20,0,3.459,51.67,-6.859488989,99.99,315.1,309.53,-4.89,-5.37,30.2,0.14,2.11,2.25,96,45,518.7,16.2,-2.7,D,777.7,6,16.288,2,2.2,181,267.18,-80.37373207,25.75831474,9.14E-02,9.14E-02,1,N,4.299807,90,90,-1.119036,5,5,259.6754,0,2.64,2.08,4.853281,2,9,28.5,0,28.5,0.92,1506.57256,9/25/20,10:20:05,27.77,1.828,0.92,1.844,8.41,-83.6,-0.9,-3.4,-1389,93.6,7.32,13.2,
25.75832705,-80.37357869,39:54.8,9/25/20,5,3.459,51.67,-6.859488989,2.57,298.9,293.14,-5.02,0.5,30.2,0.14,2.11,2.25,96,45,518.7,16.2,-2.7,D,777.7,6,15.421,2,2.03,181,264.91,-80.37373207,25.75831474,9.14E-02,9.14E-02,1,N,4.681613,90,90,-1.139058,5,5,255.8395,0,1.64,2.06,3.827,2,9,28.5,0,28.5,0.92,1506.57071,9/25/20,10:20:06,27.77,1.827,0.92,1.807,8.42,-84.5,-0.5,-6.3,-26,93.7,7.32,13,
25.75832979,-80.37358954,39:55.8,9/25/20,7,3.459,51.67,-6.859488989,1.51,285.6,279.61,-4.74,-4.13,30.1,0.16,2.02,2.18,96,45,518.7,16.2,-2.7,D,776.8,6,14.372,2,1.9,181,263.31,-80.37373207,25.75831474,9.14E-02,9.14E-02,1,N,4.776972,90,90,-0.8728873,20,20,252.7425,0,9999.99,1.97,2.097,2,9,28.5,0,28.5,0.92,1506.57125,9/25/20,10:20:07,27.77,1.827,0.92,1.904,8.41,-83.6,-0.4,-4.4,725,93.6,7.32,13.2,
25.75833001,-80.37359873,39:56.8,9/25/20,6,3.459,51.67,-6.859488989,1.51,272.6,266.28,-4.34,-0.5,30.1,0.19,2.02,2.21,96,45,518.7,16.2,-2.7,D,776.8,6,13.461,2,1.8,181,262.75,-80.37373207,25.75831474,9.14E-02,9.14E-02,1,N,4.617949,91,91,-0.6653787,67,67,252.7006,0,9999.99,1.98,2.107,2,9,28.5,0,28.5,0.92,1506.57661,9/25/20,10:20:09,27.75,1.828,0.92,2.081,8.41,-84.1,-0.3,-3.8,-1303,93.6,7.32,13.2,
25.75832885,-80.37360765,39:57.8,9/25/20,5,3.459,51.67,-6.859488989,1.51,265.2,258.63,-3.77,0.36,30.2,0.22,1.91,2.13,96,45,518.7,16.2,-2.7,D,776.8,6,12.559,2,1.78,181,262.82,-80.37373207,25.75831474,9.14E-02,9.14E-02,1,N,4.310174,92,92,-0.2660905,122,122,254.3808,0,0.34,1.87,2.337,2,9,28.5,0,28.5,0.92,1506.57661,9/25/20,10:20:09,27.75,1.828,0.92,2.081,8.41,-84.1,-0.3,-3.8,-1303,93.6,7.32,13.2,
25.75832686,-80.37361737,39:58.9,9/25/20,5,3.459,51.67,-6.859488989,1.51,261.9,255.2,-1.47,0.2,30.2,0.25,1.91,2.16,96,45,518.7,16.2,-2.7,D,776.8,6,11.566,2,1.81,181,263.31,-80.37373207,25.75831474,9.14E-02,9.14E-02,1,N,3.891191,102,102,3.00E-02,129,129,256.7572,0,0.35,1.88,2.357,2,9,28.5,0,28.5,0.92,1506.58536,9/25/20,10:20:10,27.74,1.828,0.92,2.185,8.42,-84.3,-0.8,-4.6,2365,93.6,7.32,13,
25.7583248,-80.37362668,39:59.9,9/25/20,4,3.459,51.67,-6.859488989,2.4,261,254.27,0.45,-0.26,30.2,0.26,1.86,2.12,96,44,518.7,16.2,-2.7,D,792.7,6,10.613,2,1.89,181,263.95,-80.37373207,25.75831474,9.14E-02,9.14E-02,1,N,3.46576,125,125,0.175193,133,133,259.2725,0,0.37,1.85,2.347,2,9,28.5,0,28.5,0.92,1506.58952,9/25/20,10:20:11,27.74,1.828,0.92,2.273,8.42,-84.7,-0.7,-5.7,-947,93.7,7.33,13.2,
25.75832267,-80.37363577,40:00.9,9/25/20,0,3.459,51.67,-6.859488989,99.99,261.4,254.68,0.08,2.22,30.2,0.24,1.87,2.12,96,44,518.7,16.2,-2.7,D,792.7,6,9.684,2,2.02,181,264.78,-80.37373207,25.75831474,9.14E-02,9.14E-02,1,N,3.032841,124,124,7.75E-02,136,136,261.9335,0,0.33,1.88,2.337,2,9,28.5,0,28.5,0.92,1506.59083,9/25/20,10:20:12,27.73,1.828,0.92,2.26,8.4,-83.1,-1,-1.9,1332,93.7,7.33,13.2,
25.75832013,-80.37364619,40:01.9,9/25/20,0,3.459,51.67,-6.859488989,99.99,262.4,255.72,-1.07,3.73,30.2,0.21,1.89,2.1,96,44,518.7,16.2,-2.7,D,792.7,6,8.621,2,2.14,181,266.01,-80.37373207,25.75831474,9.14E-02,9.14E-02,1,N,2.539304,109,109,-0.324208,164,164,265.0862,0,0.31,1.89,2.327,2,9,28.5,0,28.5,0.92,1506.5863,9/25/20,10:20:14,27.73,1.829,0.92,1.997,8.4,-83.1,0.3,-5.6,510,93.7,7.33,13.1,
25.75831763,-80.37365697,40:02.9,9/25/20,0,3.459,51.67,-6.859488989,99.99,265.3,258.73,-1.49,7.41,30.2,0.17,1.81,1.98,96,43,518.6,16.2,-2.6,D,799.4,6,7.528,2,2.19,181,267.55,-80.37373207,25.75831474,9.14E-02,9.14E-02,1,N,2.027109,108,108,-0.7126091,169,169,268.4775,0,9999.99,1.8,1.927,2,9,28.5,0,28.5,0.92,1506.5863,9/25/20,10:20:14,27.73,1.829,0.92,1.997,8.4,-83.1,0.3,-5.6,510,93.7,7.33,13.1,
25.75831594,-80.37366816,40:03.9,9/25/20,3,3.459,51.67,-6.859488989,2.7,270.1,263.7,-1.88,11,30.2,0.15,1.84,2,96,43,518.6,16.2,-2.6,D,799.4,6,6.402,2,2.22,181,268.8,-80.37373207,25.75831474,9.14E-02,9.14E-02,1,N,1.57881,108,108,-0.9259933,161,161,271.5312,0,0.5,1.83,2.457,2,9,28.5,0,28.5,0.92,1506.57577,9/25/20,10:20:15,27.74,1.828,0.92,1.922,8.42,-84.3,-0.5,-4,2043,93.7,7.33,13.1,
25.75831526,-80.37368071,40:04.9,9/25/20,3,3.459,51.67,-6.859488989,2.7,275.6,269.37,-2.01,10.6,30.3,0.14,1.95,2.09,96,43,518.6,16.2,-2.6,D,799.4,6,5.143,2,2.21,180,269.36,-80.37373207,25.75831474,9.14E-02,9.14E-02,1,N,1.219027,108,108,-1.097318,146,146,274.0315,0,2.56,1.93,4.617947,2,9,28.5,0,28.5,0.92,1506.57226,9/25/20,10:20:17,27.76,1.827,0.92,1.845,8.41,-83.6,-0.3,-3,2940,93.8,7.33,13.2,
25.75831544,-80.37369159,40:05.9,9/25/20,3,3.459,51.67,-6.859488989,2.7,278.4,272.24,-2.53,7.18,30.3,0.12,2.02,2.14,96,43,518.6,16.2,-2.6,D,799.4,7,15.529,2,2.23,180,314.9,-80.37380143,25.75841401,0,0,1,N,3.590381,44,44,11,250,250,307.707,0,2.63,2,4.757333,2,9,28.5,0,28.5,0.92,1506.57226,9/25/20,10:20:17,27.76,1.827,0.92,1.845,8.41,-83.6,-0.3,-3,2940,93.8,7.33,13.2,
25.75831653,-80.37370274,40:06.9,9/25/20,6,3.459,51.67,-6.859488989,2.7,289.7,283.79,2.21,14.1,30.2,0.14,2.04,2.18,96,43,518.6,16.2,-2.6,D,812.2,7,14.669,2,2.18,180,317.64,-80.37380143,25.75841401,0,0,1,N,2.695186,65,65,11,245,245,311.5157,0,0.5,2.02,2.647,2,9,28.5,0,28.5,0.92,1506.56756,9/25/20,10:20:18,27.77,1.827,0.92,1.87,8.41,-83.7,-0.4,-1.8,-915,93.8,7.33,13.1,
25.75832005,-80.37371315,40:07.9,9/25/20,6,3.459,51.67,-6.859488989,2.7,304.6,298.92,8.9,4.76,30.2,0.12,2.09,2.21,96,43,518.6,16.2,-2.6,D,812.2,7,13.687,2,2.05,180,319.76,-80.37380143,25.75841401,0,0,1,N,1.975553,110,110,11,190,190,314.704,0,2.63,2.12,4.87424,2,9,28.5,0,28.5,0.92,1506.56995,9/25/20,10:20:19,27.76,1.828,0.92,1.844,8.39,-82.4,-1.5,-4.2,-30,93.9,7.34,13.1,
25.75841483,-80.37369964,40:08.9,9/25/20,6,2.073,51.67,-6.859488989,2.7,314.3,308.72,4.75,4.3,30.2,0.06,2.19,2.25,96,43,518.6,16.2,-2.6,D,812.2,7,10.194,2,1.9,180,269.49,-80.37380143,25.75841401,0,0,1,N,1.549381,93,93,11,8,8,277.9478,0,0.32,2.28,2.727,2,9,28.5,0,28.5,0.92,1506.56644,9/25/20,10:20:20,27.75,1.828,0.92,1.613,8.42,-84.7,-1.3,2.3,1003,93.8,7.34,13.2,
25.75838938,-80.37374041,40:09.9,9/25/20,10,2.033,51.67,-6.859488989,0.99,317.2,311.66,3.15,-5.05,30.2,0.01,2.3,2.31,96,44,518.6,16.2,-2.7,D,794,7,6.697,2,1.88,180,294.14,-80.37380143,25.75841401,0,0,1,N,8.418816,75,75,11,5,5,281.2383,0,9999.99,2.33,2.457,2,9,28.5,0,28.5,0.92,1506.55437,9/25/20,10:20:22,27.85,1.82,0.92,1.052,8.4,-83.2,-1.1,-6.2,629,94.1,7.35,13,
25.75837994,-80.37375567,40:10.9,9/25/20,10,1.872,348.03,-6.859488989,0.97,311.1,305.49,2.88,4.95,30.2,0,2.2,2.2,96,44,518.6,16.2,-2.7,D,791.1,7,5.946,2,1.88,180,309.58,-80.37380143,25.75841401,0,0,1,N,3.421854,74,74,11,163,163,314.4868,0,9999.99,2.23,2.357,2,9,28.5,0,28.5,0.92,1506.55437,9/25/20,10:20:22,27.85,1.82,0.92,1.052,8.4,-83.2,-1.1,-6.2,629,94.1,7.35,13,
25.75837382,-80.37377608,40:11.9,9/25/20,10,1.893,312.77,-6.859488989,0.97,307.5,301.85,2.44,7.76,30.2,0,2.32,2.32,96,44,518.6,16.2,-2.7,D,791.1,7,5.141,2,1.89,180,330.4,-80.37380143,25.75841401,0,0,1,N,1.48138,72,72,11,236,236,329.124,0,9999.99,2.34,2.467,2,9,28.5,0,28.5,0.92,1506.54713,9/25/20,10:20:23,28.07,1.818,0.92,1.034,8.38,-81.9,-1.7,-2.9,649,94.2,7.33,13.2,
25.75836941,-80.37379154,40:12.9,9/25/20,10,1.933,302.11,-6.859488989,0.97,313.5,307.92,1.48,3.69,30.2,0,2.29,2.29,96,44,518.6,16.2,-2.7,D,791.1,8,5.058,2,1.93,128,348.7,-80.37380143,25.75841401,0,0,6,N,0.3723952,69,69,11,241,241,335.645,0,9999.99,2.31,2.437,2,9,28.5,0,28.5,0.91,1506.5366,9/25/20,10:20:25,28.38,1.807,0.91,1.04,8.38,-82.2,-0.8,-2.1,-429,94.2,7.29,13.3,
25.75837207,-80.37380438,40:13.9,9/25/20,9,1.438,300.47,-6.859488989,1.01,325.9,320.45,4.52,-5.06,30.2,0,2.22,2.22,96,34,518.5,16.3,-2.1,D,1017.4,8,4.674,2,1.92,128,3.63,-80.37380143,25.75841401,0,0,6,N,0.3723952,82,82,11,250,250,355.3728,0,9999.99,2.23,2.357,2,9,28.5,0,28.5,0.91,1506.5366,9/25/20,10:20:25,28.38,1.807,0.91,1.04,8.38,-82.2,-0.8,-2.1,-429,94.2,7.29,13.3,
25.75837421,-80.37381702,40:14.9,9/25/20,10,1.1,304.94,-6.859488989,0.97,332.7,327.34,5.53,0.2,30.2,0.01,2.37,2.38,96,34,518.5,16.3,-2.1,D,1017.4,8,4.693,2,1.66,128,19.43,-80.37380143,25.75841401,0,0,6,N,0.3723952,90,90,11,250,250,10.80219,0,9999.99,2.41,2.537,2,9,28.5,0,28.5,0.9,1506.52661,9/25/20,10:20:26,28.42,1.799,0.9,1.019,8.38,-82.6,-1.8,-3.8,3998,94.2,7.28,13,
25.75837697,-80.37382053,40:15.9,9/25/20,10,0.9,310.91,-6.859488989,0.97,339.1,333.84,5.58,-2.61,30.2,0.02,2.38,2.4,96,34,518.5,16.3,-2.1,D,1017.4,8,4.542,2,1.4,128,24.91,-80.37380143,25.75841401,0,0,6,N,0.3723952,91,91,11,250,250,26.32657,0,9999.99,2.43,2.557,2,9,28.6,0,28.60000038,0.9,1506.76906,9/25/20,10:20:28,28.41,1.798,0.9,1.026,8.37,-81.8,-1.9,-5.4,3109,94.1,7.28,13.2,
25.75838078,-80.3738235,40:16.9,9/25/20,10,0.755,314.23,-6.859488989,0.97,344,338.82,4.16,-5.07,30.2,0.01,2.37,2.39,96,34,518.5,16.3,-2.1,D,1017.4,8,4.306,2,1.19,128,30.89,-80.37380143,25.75841401,0,0,6,N,0.3723952,82,82,11,250,250,30.18752,0,9999.99,2.42,2.547,2,9,28.6,0,28.60000038,0.9,1506.76906,9/25/20,10:20:28,28.41,1.798,0.9,1.026,8.37,-81.8,-1.9,-5.4,3109,94.1,7.28,13.2,
25.75838081,-80.37382549,40:18.0,9/25/20,10,0.622,317.81,-6.859488989,0.97,349,343.92,3.66,-5.06,30.2,0,2.39,2.4,96,21,518.5,16.3,-1.2,D,1665,8,4.408,2,1,128,33.14,-80.37380143,25.75841401,0,0,6,N,0.3723952,79,79,11,250,250,32.57734,0,9999.99,2.43,2.557,2,9,28.6,0,28.60000038,0.9,1506.7684,9/25/20,10:20:29,28.43,1.798,0.9,1.007,8.4,-83.7,-1.5,-0.4,-647,94.1,7.27,13.2,
25.75838192,-80.37382543,40:19.0,9/25/20,10,0.621,325.92,-6.859488989,0.97,353.5,348.51,3.76,-5.02,30.2,0,2.4,2.4,96,21,518.5,16.3,-1.2,D,1665,8,4.303,2,0.84,128,33.96,-80.37380143,25.75841401,0,0,6,N,0.3723952,80,80,11,250,250,37.18027,0,9999.99,2.43,2.557,2,9,28.6,0,28.60000038,0.9,1506.76636,9/25/20,10:20:31,28.42,1.799,0.9,0.991,8.39,-83.1,-2.2,-1.3,1,94,7.27,13.2,
25.75838319,-80.37382605,40:20.0,9/25/20,10,0.521,329.34,-6.859488989,0.97,357.7,352.8,4.43,-4.96,30.2,0,2.41,2.41,96,21,518.5,16.3,-1.2,D,1665,8,4.222,2,0.72,128,35.74,-80.37380143,25.75841401,0,0,6,N,0.3723952,84,84,11,250,250,37.25544,0,9999.99,2.44,2.567,2,9,28.6,0,28.60000038,0.9,1506.76636,9/25/20,10:20:31,28.42,1.799,0.9,0.991,8.39,-83.1,-2.2,-1.3,1,94,7.27,13.2,
25.7583858,-80.37382439,40:21.0,9/25/20,10,0.421,329.34,-6.859488989,0.97,0.8,355.97,4.89,-4.17,30.3,0,2.39,2.39,96,21,518.4,16.3,-1.2,D,1671.4,8,3.889,2,0.63,128,36.24,-80.37380143,25.75841401,0,0,6,N,0.3723952,86,86,11,250,250,35.90858,0,9999.99,2.43,2.557,2,9,28.6,0,28.60000038,0.9,1506.76668,9/25/20,10:20:32,28.42,1.799,0.9,0.999,8.36,-81.3,-0.9,-5.7,487,94,7.26,13.2,
25.75838628,-80.37382368,40:22.0,9/25/20,10,0.415,329.34,-6.859488989,0.97,3.5,358.73,5.17,-4.06,30.3,0.01,2.4,2.41,96,21,518.4,16.3,-1.2,D,1671.4,8,3.805,2,0.56,128,35.85,-80.37380143,25.75841401,0,0,6,N,0.3723952,88,88,11,250,250,38.76007,0,9999.99,2.44,2.567,2,9,28.6,0,28.60000038,0.9,1506.76707,9/25/20,10:20:34,28.41,1.798,0.9,0.996,8.38,-82.3,-2,-1.3,-549,93.8,7.26,13,
25.75838692,-80.37382232,40:23.0,9/25/20,10,0.417,329.34,-6.859488989,0.97,6.6,1.9,4.96,-4.98,30.4,0.01,2.38,2.39,96,21,518.4,16.3,-1.2,D,1671.4,8,3.668,2,0.5,128,34.78,-80.37380143,25.75841401,0,0,6,N,0.3723952,87,87,11,250,250,37.99342,0,9999.99,2.43,2.557,2,9,28.6,0,28.60000038,0.9,1506.76707,9/25/20,10:20:34,28.41,1.798,0.9,0.996,8.38,-82.3,-2,-1.3,-549,93.8,7.26,13,
25.75838706,-80.37382149,40:24.0,9/25/20,10,0.375,329.34,-6.859488989,0.97,9.1,4.46,4.6,-4.64,30.3,0.01,2.41,2.41,96,21,518.4,16.3,-1.2,D,1671.4,8,3.608,2,0.45,128,33.83,-80.37380143,25.75841401,0,0,6,N,0.3723952,85,85,11,250,250,36.61248,0,9999.99,2.45,2.577,2,9,28.6,0,28.60000038,0.9,1506.76776,9/25/20,10:20:35,28.41,1.798,0.9,0.988,8.39,-83.1,-1.3,-4.6,-1736,93.8,7.25,13.1,
25.75838738,-80.37382131,40:25.0,9/25/20,10,0.353,329.34,-6.859488989,0.97,12.1,7.53,4.23,-4.61,30.3,0,2.4,2.4,96,21,518.4,16.3,-1.3,D,1658.4,8,3.569,2,0.41,128,33.91,-80.37380143,25.75841401,0,0,6,N,0.3723952,82,82,11,238,238,35.39486,0,9999.99,2.44,2.567,2,9,28.6,0,28.60000038,0.9,1506.76705,9/25/20,10:20:37,28.41,1.797,0.9,0.988,8.4,-83.3,-0.6,-5.7,2791,93.8,7.26,13.2,
25.75838869,-80.3738208,40:26.0,9/25/20,10,0.365,329.34,-6.859488989,0.97,15,10.5,4.11,-4.98,30.3,0,2.4,2.4,96,21,518.4,16.3,-1.3,D,1658.4,8,3.419,2,0.38,128,34.57,-80.37380143,25.75841401,0,0,6,N,0.3723952,82,82,11,228,228,35.21713,0,9999.99,2.44,2.567,2,9,28.7,0,28.60000038,0.9,1506.76705,9/25/20,10:20:37,28.41,1.797,0.9,0.988,8.4,-83.3,-0.6,-5.7,2791,93.8,7.26,13.2,
25.75838985,-80.37382058,40:27.0,9/25/20,10,0.398,329.34,-6.859488989,0.97,17.4,12.96,4.3,-4.49,30.2,0,2.4,2.4,96,21,518.4,16.3,-1.3,D,1658.4,8,3.301,2,0.35,128,35.52,-80.37380143,25.75841401,0,0,6,N,0.3723952,83,83,11,217,217,35.38803,0,9999.99,2.44,2.567,2,9,28.7,0,28.70000076,0.9,1507.00553,9/25/20,10:20:38,28.42,1.798,0.9,0.989,8.37,-81.7,-1.8,0.3,2336,93.8,7.26,13,
25.75838998,-80.37382024,40:28.0,9/25/20,10,0.297,329.34,-6.859488989,0.97,19.6,15.21,4.54,-4.73,30.3,0,2.39,2.39,96,21,518.4,16.3,-1.3,D,1650.8,8,3.269,2,0.32,128,35.18,-80.37380143,25.75841401,0,0,6,N,0.3723952,84,84,11,206,206,35.0752,0,9999.99,2.43,2.557,2,9,28.7,0,28.70000076,0.9,1507.00552,9/25/20,10:20:40,28.43,1.796,0.9,0.981,8.39,-82.9,-0.6,1.3,1247,93.9,7.26,13.2,
25.75839048,-80.37381989,40:29.0,9/25/20,10,0.294,329.34,-6.859488989,0.97,21.9,17.56,4.65,-4.78,30.3,0,2.39,2.39,96,21,518.4,16.3,-1.3,D,1650.8,8,3.204,2,0.3,128,35.23,-80.37380143,25.75841401,0,0,6,N,0.3723952,85,85,11,199,199,35.1329,0,9999.99,2.43,2.557,2,9,28.7,0,28.70000076,0.9,1507.00552,9/25/20,10:20:40,28.43,1.796,0.9,0.981,8.39,-82.9,-0.6,1.3,1247,93.9,7.26,13.2,
25.75839061,-80.37381956,40:30.0,9/25/20,10,0.227,329.34,-6.859488989,0.97,23.4,19.09,4.65,-4.63,30.3,0,2.39,2.39,96,21,518.4,16.3,-1.3,D,1650.8,8,3.174,2,0.29,128,34.9,-80.37380143,25.75841401,0,0,6,N,0.3723952,85,85,11,190,190,34.82482,0,9999.99,2.43,2.557,2,9,28.7,0,28.70000076,0.9,1507.00617,9/25/20,10:20:42,28.46,1.796,0.9,0.993,8.36,-81,-1.5,-6.8,-430,93.8,7.24,13.1,
25.7583911,-80.37381905,40:31.0,9/25/20,10,0.247,329.34,-6.859488989,0.97,25.8,21.54,4.38,-4.79,30.3,0,2.38,2.38,96,21,518.4,16.3,-1.3,D,1650.8,8,3.098,2,0.28,128,34.7,-80.37380143,25.75841401,0,0,6,N,0.3723952,83,83,11,179,179,34.6403,0,9999.99,2.42,2.547,2,9,28.7,0,28.70000076,0.9,1507.00619,9/25/20,10:20:43,28.47,1.795,0.9,0.993,8.38,-82.4,-0.3,-7.9,911,93.7,7.24,13.1,
25.75839142,-80.37381855,40:32.1,9/25/20,10,0.247,329.34,-6.859488989,0.97,27.3,23.06,4.38,-4.96,30.3,0,2.38,2.38,96,21,518.3,16.3,-1.3,D,1649.5,8,3.041,2,0.27,128,34.31,-80.37380143,25.75841401,0,0,6,N,0.3723952,83,83,11,173,173,34.2546,0,9999.99,2.42,2.547,2,9,28.7,0,28.70000076,0.9,1507.0057,9/25/20,10:20:44,28.47,1.796,0.9,1,8.39,-82.7,-0.3,-2.1,832,93.7,7.24,13.3,
25.7583919,-80.37381821,40:33.0,9/25/20,10,0.211,329.34,-6.859488989,0.97,28.8,24.59,4.27,-4.64,30.3,0,2.39,2.39,96,21,518.3,16.3,-1.3,D,1649.5,8,2.978,2,0.26,128,34.35,-80.37380143,25.75841401,0,0,6,N,0.3723952,83,83,11,166,166,34.31017,0,9999.99,2.43,2.557,2,9,28.7,0,28.70000076,0.9,1507.00564,9/25/20,10:20:45,28.48,1.796,0.9,0.982,8.39,-82.8,-1.3,-1.7,-529,93.7,7.24,13.3,
