Latitude,Longitude,Time,Date,Number of Sats,GPS Speed (Kn),GPS True Heading,GPS Magnetic Variation,HDOP,C Magnetic Heading,C True Heading,Pitch Angle,Roll Angle,C Inside Temp (c),DFS Depth (m),DTB Height (m),Total Water Column (m),Batt Percent,Power Watts,Watt-Hours,Batt Volts,Batt Ampers,Batt State,Time to Empty,Current Step,Dist To Next (m),Next Speed (kn),Vehicle Speed (kn),Motor Speed CMD,Next Heading,Next Long,Next Lat,Next Depth (m),Depth Goal (m),Vehicle State,Error State,Distance to Track (m),Fin Pitch R,Fin Pitch L,Pitch Goal,Fin Yaw T,Fin Yaw B,Yaw Goal,Fin Roll,DVL-Depth (m),DVL -Altitude (m),DVL -Water Column (m),DVL-FixType,DVL-FixQuality,DVL-Temperature,Conductivity (mmhos/cm),Temperature (c),Salinity (ppt),Sound Speed (m/s),Date m/d/y   ,Time hh:mm:ss,Temp C,SpCond mS/cm,Sal ppt,Depth feet,pH,pH mV,Turbid+ NTU,Chl ug/L,BGA-PC cells/mL,ODOsat %,ODO mg/L,Battery volts,ROSEM Command Type
25.758427,-80.37386717,31:04.2,9/25/20,8,0.054,143.58,-6.859445324,1.06,162.6,152.8,4.37,-4.94,30.1,0,0.85,0.85,96,21,522.4,16.3,-1.3,D,1627.2,0,21.215,2,0,128,200.15,-80.37394014,25.75824789,0,0,1,N,21.10107,83,83,11,250,250,213.9106,0,9999.99,0.89,1.017,2,9,29,0,29,0.91,1507.72958,9/25/20,10:11:15,28.51,1.813,0.91,0.926,8.54,-91.7,0.2,-3.2,1747,99.7,7.69,13.1,
25.758428,-80.37386733,31:05.3,9/25/20,8,0.183,143.58,-6.859445324,1.06,162.6,152.8,4.24,-4.81,30.2,0,0.85,0.85,96,21,522.4,16.3,-1.3,D,1627.2,0,21.215,2,0,128,200.15,-80.37394014,25.75824789,0,0,1,N,21.10107,82,82,11,250,250,213.9106,0,9999.99,0.89,1.017,2,9,29,0,29,0.91,1507.72958,9/25/20,10:11:16,28.52,1.81,0.91,0.942,8.53,-91.5,1.8,-3,427,99.6,7.69,13.2,
25.75842872,-80.37386728,31:06.3,9/25/20,8,0.186,143.58,-6.859445324,1.06,161.9,152.12,5.69,-2.5,30.1,0.02,0.86,0.88,96,21,522.4,16.3,-1.3,D,1627.2,1,20.17,2,0.06,174,160.24,-80.37379919,25.75825802,9.14E-02,0,1,N,19.46102,88,88,11,131,131,153.0908,0,9999.99,0.9,1.027,2,9,29,0,29,0.91,1507.72958,9/25/20,10:11:17,28.52,1.808,0.91,0.937,8.53,-91.2,-0.7,-0.7,-1413,99.6,7.69,13.2,
25.75842749,-80.3738675,31:07.3,9/25/20,8,0.629,143.58,-6.859445324,1.06,163.3,153.48,5.01,-0.12,30.2,0.03,0.84,0.87,96,26,522.4,16.3,-1.6,D,1350.3,2,30.889,2,0.01,174,163.77,-80.37378129,25.75816077,9.14E-02,0,1,N,4.820716,87,87,11,128,128,153.6965,0,9999.99,0.89,1.017,2,9,29,0,29,0.91,1507.73384,9/25/20,10:11:19,28.55,1.815,0.91,0.941,8.54,-91.8,1.3,-3.5,-1580,99.6,7.68,13.1,
25.75842263,-80.37386505,31:08.3,9/25/20,8,1.235,152.2,-6.859445324,1.12,163.1,153.29,3.4,0.78,30.2,0.02,1.03,1.05,96,26,522.4,16.3,-1.6,D,1350.3,2,30.302,2,0.22,174,163.93,-80.37378129,25.75816077,9.14E-02,0,1,N,3.5172,77,77,11,164,164,162.6388,0,9999.99,1.07,1.197,2,9,29,0,29,0.91,1507.73384,9/25/20,10:11:19,28.55,1.815,0.91,0.941,8.54,-91.8,1.3,-3.5,-1580,99.6,7.68,13.1,
25.75841569,-80.37386024,31:09.3,9/25/20,8,1.475,153.23,-6.859445324,1.06,166,156.11,2.02,0.35,30.2,0.01,1.5,1.51,96,26,522.4,16.3,-1.6,D,1350.3,2,29.428,2,0.59,174,164.41,-80.37378129,25.75816077,9.14E-02,9.14E-02,1,N,3.171634,155,155,-1.29291,156,156,163.1796,0,9999.99,1.53,1.657,2,9,29,0,29,0.92,1507.74303,9/25/20,10:11:20,28.52,1.824,0.92,0.949,8.5,-89.2,110.2,-2.1,468,99.6,7.68,13.1,
25.75840916,-80.37385676,31:10.3,9/25/20,8,1.132,155.79,-6.859445324,1.18,170.4,160.43,-1.71,-5,30.2,0,1.72,1.72,96,38,522.4,16.3,-2.3,D,935.6,2,28.635,2,0.92,174,164.7,-80.37378129,25.75816077,9.14E-02,9.14E-02,1,N,2.950126,121,121,-1.397683,139,139,163.4803,0,9999.99,1.73,1.857,2,9,29,0,29,0.92,1507.74073,9/25/20,10:11:22,28.48,1.828,0.92,0.986,8.48,-88.4,863.5,-2.3,939,99.8,7.71,13,
25.75840235,-80.37385427,31:11.3,9/25/20,8,1.578,161.74,-6.859445324,1.06,173.2,163.19,-2.29,-4.66,30.2,0,1.87,1.87,96,38,522.4,16.3,-2.3,D,935.6,2,27.84,2,1.18,174,164.78,-80.37378129,25.75816077,9.14E-02,9.14E-02,1,N,2.82568,118,118,-1.417371,128,128,163.5537,0,9999.99,1.85,1.977,2,9,29,0,29,0.92,1507.74073,9/25/20,10:11:22,28.48,1.828,0.92,0.986,8.48,-88.4,863.5,-2.3,939,99.8,7.71,13,
25.75839433,-80.37385232,31:12.3,9/25/20,8,1.752,164.58,-6.859445324,1.06,176.8,166.77,-4.04,-5.03,30.2,0,2.06,2.06,96,38,522.4,16.3,-2.3,D,935.6,2,26.928,2,1.35,174,164.68,-80.37378129,25.75816077,9.14E-02,9.14E-02,1,N,2.775195,110,110,-1.419095,118,118,163.4064,0,9999.99,2.04,2.167,2,9,29,0,29,0.92,1507.74003,9/25/20,10:11:24,28.47,1.828,0.92,1.244,8.5,-89.4,477.7,-5.8,-1190,99.6,7.69,13.1,
25.75838148,-80.37385079,31:13.3,9/25/20,8,1.7,169.27,-6.859445324,1.06,177.9,167.86,-6.46,-1.66,30.2,0.01,2.27,2.28,96,38,522.4,16.3,-2.3,D,935.6,2,25.51,2,1.48,174,164.17,-80.37378129,25.75816077,9.14E-02,9.14E-02,1,N,2.855893,92,92,-1.22414,106,106,162.716,0,9999.99,2.23,2.357,2,9,29,0,29,0.92,1507.74037,9/25/20,10:11:25,28.37,1.833,0.92,1.348,8.47,-87.8,302.2,0.2,-1536,99.5,7.7,13.1,
25.75837256,-80.37384944,31:14.3,9/25/20,8,1.958,170.74,-6.859445324,1.06,178.2,168.16,-7.65,-0.15,30.2,0.05,2.33,2.38,96,37,522.4,16.3,-2.2,D,948.6,2,24.519,2,1.6,174,163.84,-80.37378129,25.75816077,9.14E-02,9.14E-02,1,N,2.883591,81,81,-0.7065002,103,103,162.2651,0,9999.99,2.27,2.397,2,9,29,0,29,0.93,1507.75838,9/25/20,10:11:26,28.22,1.837,0.93,1.579,8.51,-90,357.3,-4.1,-156,99.3,7.71,13,
25.75836317,-80.37384636,31:15.4,9/25/20,8,1.939,170.74,-6.859445324,1.06,176.7,166.67,-5.72,-0.45,30.2,0.12,2.27,2.39,96,37,522.4,16.3,-2.2,D,948.6,2,23.431,2,1.68,174,163.85,-80.37378129,25.75816077,9.14E-02,9.14E-02,1,N,2.754487,89,89,-1.644124,109,109,162.1882,0,0.46,2.2,2.787,2,9,29,0,29,0.93,1507.76109,9/25/20,10:11:27,28.05,1.844,0.93,1.884,8.48,-88.1,624.8,-3.1,1848,99.1,7.71,13.2,
25.75835772,-80.37384098,31:16.4,9/25/20,8,1.465,170.74,-6.859445324,1.06,175.3,165.27,-2.89,-1.67,30.2,0.19,2.2,2.39,96,37,522.4,16.3,-2.2,D,948.6,2,22.702,2,1.75,174,164.73,-80.37378129,25.75816077,9.14E-02,9.14E-02,1,N,2.326408,101,101,-0.9143578,119,119,163.2299,0,0.34,2.15,2.617,2,9,29,0,29,0.93,1507.78259,9/25/20,10:11:28,27.91,1.848,0.93,2.12,8.51,-90.1,315.2,-0.5,3429,98.8,7.71,13.1,
25.75834764,-80.37383873,31:17.4,9/25/20,7,1.93,170.74,-6.859445324,1.56,174.6,164.58,-0.59,-1.44,30.1,0.23,2.15,2.38,96,37,522.4,16.3,-2.3,D,944.8,2,21.56,2,1.81,174,164.53,-80.37378129,25.75816077,9.14E-02,9.14E-02,1,N,2.289253,112,112,-0.415654,125,125,162.8885,0,0.36,2.12,2.607,2,9,29,0,29,0.93,1507.79042,9/25/20,10:11:29,27.8,1.852,0.93,2.208,8.51,-89.8,466.3,-2.7,-623,98.5,7.7,13,
25.75834172,-80.37384559,31:18.4,9/25/20,4,1.601,170.74,-6.859445324,15.85,174.7,164.68,0.01,-0.61,30.2,0.24,2.16,2.39,96,37,522.4,16.3,-2.3,D,944.8,2,21.126,2,1.8,174,162.25,-80.37378129,25.75816077,9.14E-02,9.14E-02,1,N,3.075889,126,126,-0.3732828,121,121,159.9726,0,0.35,2.15,2.627,2,9,28.9,0,28.89999962,0.94,1507.56382,9/25/20,10:11:30,27.73,1.855,0.94,2.147,8.52,-90.4,205.7,-3.8,357,98.2,7.69,12.9,
25.75833355,-80.37384276,31:19.4,9/25/20,3,1.601,170.74,-6.859445324,12.41,173.5,163.49,-1.27,0.5,30.2,0.21,2.2,2.41,96,37,522.4,16.3,-2.3,D,944.8,2,20.174,2,1.87,174,162.23,-80.37378129,25.75816077,9.14E-02,9.14E-02,1,N,2.946464,111,111,-0.6521068,112,112,159.8452,0,0.33,2.2,2.657,2,9,28.9,0,28.89999962,0.94,1507.55877,9/25/20,10:11:31,27.69,1.856,0.94,2.014,8.52,-90.3,329.8,-6.6,-2367,98,7.67,13.1,
25.75832522,-80.37383986,31:20.4,9/25/20,3,1.601,170.74,-6.859445324,12.42,174.1,164.08,-1.94,0.05,30.2,0.17,2.26,2.43,96,37,522.4,16.3,-2.3,D,944.8,2,19.204,2,1.91,174,162.22,-80.37378129,25.75816077,9.14E-02,9.14E-02,1,N,2.812127,108,108,-1.137268,110,110,159.7238,0,9999.99,2.25,2.377,2,9,28.9,0,28.89999962,0.94,1507.55203,9/25/20,10:11:32,27.68,1.857,0.94,1.901,8.5,-89.2,196.4,-0.8,935,97.7,7.65,13,
25.75831673,-80.37383675,31:21.4,9/25/20,0,1.601,170.74,-6.859445324,99.99,172.9,162.89,-2.7,0.03,30.1,0.14,2.31,2.45,96,36,522.3,16.3,-2.2,D,973.9,2,18.21,2,1.93,174,162.24,-80.37378129,25.75816077,9.14E-02,9.14E-02,1,N,2.663467,105,105,-1.426344,114,114,159.6247,0,9999.99,2.29,2.417,2,9,28.9,0,28.89999962,0.94,1507.55033,9/25/20,10:11:33,27.68,1.856,0.94,1.836,8.54,-91.8,154.3,-1.8,-537,97.4,7.63,13.2,
25.75830818,-80.3738335,31:22.4,9/25/20,0,1.601,170.74,-6.859445324,99.99,171.6,161.61,-3.21,-0.22,30.2,0.13,2.35,2.49,96,36,522.3,16.3,-2.2,D,973.9,2,17.205,2,1.95,174,162.31,-80.37378129,25.75816077,9.14E-02,9.14E-02,1,N,2.496397,103,103,-1.507004,117,117,159.5844,0,0.49,2.33,2.947,2,9,28.9,0,28.89999962,0.94,1507.54613,9/25/20,10:11:34,27.69,1.856,0.94,1.793,8.5,-89,154.4,-1.4,157,97.2,7.61,12.9,
25.75829944,-80.37383006,31:23.4,9/25/20,0,1.601,170.74,-6.859445324,99.99,171.6,161.61,-3.44,-0.82,30.1,0.13,2.33,2.46,96,36,522.3,16.3,-2.2,D,973.9,2,16.174,2,1.94,174,162.42,-80.37378129,25.75816077,9.14E-02,9.14E-02,1,N,2.319159,102,102,-1.554658,119,119,159.6035,0,0.49,2.3,2.917,2,9,28.8,0,28.79999924,0.94,1507.30747,9/25/20,10:11:35,27.69,1.857,0.94,1.82,8.53,-90.8,220.8,-3,-1524,97,7.59,13.1,
25.75829096,-80.37382674,31:24.4,9/25/20,0,1.601,170.74,-6.859445324,99.99,171.6,161.61,-3.06,-0.08,30.1,0.13,2.29,2.42,96,36,522.3,16.3,-2.2,D,978.3,2,15.175,2,1.94,174,162.54,-80.37378129,25.75816077,9.14E-02,9.14E-02,1,N,2.145212,104,104,-1.477141,119,119,159.6456,0,0.5,2.26,2.887,2,9,28.8,0,28.79999924,0.94,1507.30753,9/25/20,10:11:36,27.69,1.856,0.94,1.821,8.51,-89.7,457.1,-1.7,290,96.8,7.58,13.1,
25.75828255,-80.37382335,31:25.4,9/25/20,8,1.601,170.74,-6.859445324,5.99,170.4,160.43,-2.6,0.33,30.2,0.14,2.26,2.4,96,36,522.3,16.3,-2.2,D,973.9,2,14.182,2,1.96,174,162.72,-80.37378129,25.75816077,9.14E-02,9.14E-02,1,N,1.961955,107,107,-1.388625,124,124,159.7696,0,9999.99,2.23,2.357,2,9,28.8,0,28.79999924,0.94,1507.31004,9/25/20,10:11:37,27.69,1.855,0.94,1.859,8.52,-90.6,173.2,-4,1461,96.7,7.57,13.1,
25.75827388,-80.37381993,31:26.4,9/25/20,8,1.601,170.74,-6.859445324,5.98,170.2,160.23,-2.48,0.33,30.1,0.15,2.28,2.43,96,36,522.3,16.3,-2.2,D,973.9,2,13.159,2,2.01,174,162.9,-80.37378129,25.75816077,9.14E-02,9.14E-02,1,N,1.780449,105,105,-1.350737,125,125,159.943,0,9999.99,2.26,2.387,2,9,28.8,0,28.79999924,0.94,1507.31061,9/25/20,10:11:38,27.69,1.855,0.94,1.863,8.51,-89.8,182.5,-1,-2197,96.5,7.56,12.9,
25.7582646,-80.37381646,31:27.4,9/25/20,8,1.601,170.74,-6.859445324,1.06,171.6,161.61,-2.06,-0.22,30.2,0.15,2.32,2.47,96,36,522.3,16.3,-2.2,D,973.9,2,12.071,2,1.92,174,163.04,-80.37378129,25.75816077,9.14E-02,9.14E-02,1,N,1.604011,109,109,-1.355121,124,124,160.787,0,9999.99,2.3,2.427,2,9,28.8,0,28.79999924,0.94,1507.3103,9/25/20,10:11:39,27.69,1.856,0.94,1.853,8.52,-90.2,291.6,-3.5,491,96.4,7.55,13.1,
25.758256,-80.37381312,31:28.4,9/25/20,8,1.601,170.74,-6.859445324,1.06,171.1,161.12,-2.04,0.12,30.2,0.13,2.35,2.48,96,36,522.3,16.3,-2.2,D,976.9,2,11.059,2,1.96,174,163.25,-80.37378129,25.75816077,9.14E-02,9.14E-02,1,N,1.4331,110,110,-1.492161,125,125,160.6218,0,9999.99,2.33,2.457,2,9,28.8,0,28.79999924,0.94,1507.30833,9/25/20,10:11:40,27.7,1.856,0.94,1.827,8.54,-91.6,163.2,-5.7,506,96.2,7.53,13.1,
25.75824816,-80.37381027,31:29.4,9/25/20,8,1.601,170.74,-6.859445324,1.06,170.7,160.72,-1.8,0.5,30.2,0.12,2.35,2.47,96,36,522.3,16.3,-2.2,D,976.9,2,10.141,2,1.96,174,163.37,-80.37378129,25.75816077,9.14E-02,9.14E-02,1,N,1.291721,113,113,-1.605828,131,131,161.4173,0,0.47,2.33,2.927,2,9,28.8,0,28.79999924,0.94,1507.30652,9/25/20,10:11:41,27.72,1.855,0.94,1.78,8.49,-88.8,89,-4,-238,96.1,7.52,13.2,
25.75823927,-80.37380693,31:30.4,9/25/20,8,1.601,170.74,-6.859445324,1.06,171.1,161.12,-2.59,0.64,30.2,0.11,2.34,2.44,96,36,522.3,16.3,-2.2,D,976.9,2,9.099,2,2,174,163.61,-80.37378129,25.75816077,9.14E-02,9.14E-02,1,N,1.125961,110,110,-1.752272,133,133,162.5768,0,0.44,2.32,2.887,2,9,28.7,0,28.70000076,0.94,1507.0656,9/25/20,10:11:42,27.73,1.856,0.94,1.716,8.53,-91,312.4,-6.5,-4653,95.9,7.5,13,
25.75821896,-80.37385685,31:31.4,9/25/20,8,1.973,170.74,-6.859445324,1.06,171.4,161.41,-3.12,0.96,30.2,0.08,2.33,2.42,96,36,522.3,16.3,-2.2,D,976.9,2,9.957,2,2,174,130.53,-80.37378129,25.75816077,9.14E-02,9.14E-02,1,N,6.426324,106,106,-2.004097,9,9,131.8125,0,0.42,2.31,2.857,2,9,28.7,0,28.70000076,0.93,1507.0546,9/25/20,10:11:43,27.74,1.853,0.93,1.685,8.49,-88.8,337,0.8,1167,95.9,7.5,13.1,
25.75820247,-80.37385067,31:32.4,9/25/20,7,2.263,170.74,-6.859445324,1.32,166.3,156.4,-4.17,-2.4,30.2,0.07,2.34,2.41,96,36,522.3,16.3,-2.2,D,972,2,8.353,2,1.98,174,123.72,-80.37378129,25.75816077,9.14E-02,9.14E-02,1,N,6.121833,101,101,-2.126848,34,34,133.1624,0,0.42,2.31,2.857,2,9,28.7,0,28.70000076,0.93,1507.04928,9/25/20,10:11:44,27.76,1.852,0.93,1.709,8.52,-90.3,150.5,-2.2,1501,95.9,7.5,13.1,
25.75819837,-80.37384309,31:33.4,9/25/20,8,1.78,170.74,-6.859445324,1.06,155.6,146.05,-3.97,-5.01,30.2,0.09,2.31,2.4,96,36,522.3,16.3,-2.2,D,972,2,7.469,2,1.92,174,124.04,-80.37378129,25.75816077,9.14E-02,9.14E-02,1,N,5.465207,101,101,-1.908946,88,88,136.2477,0,0.43,2.27,2.827,2,9,28.7,0,28.70000076,0.93,1507.0519,9/25/20,10:11:45,27.77,1.852,0.93,1.723,8.5,-89.3,159.3,0.8,-883,95.9,7.5,13.1,
25.758194,-80.37383881,31:34.4,9/25/20,8,1.564,170.74,-6.859445324,1.06,150.9,141.56,-4.28,-1.59,30.2,0.11,2.27,2.38,96,36,522.3,16.3,-2.2,D,972,2,6.845,2,1.83,174,122.68,-80.37378129,25.75816077,9.14E-02,9.14E-02,1,N,5.136583,97,97,-1.6787,112,112,137.8862,0,0.48,2.23,2.837,2,9,28.7,0,28.70000076,0.93,1507.05353,9/25/20,10:11:46,27.78,1.851,0.93,1.783,8.51,-89.9,653.6,-8.6,900,95.8,7.49,13,
25.7581905,-80.37383292,31:35.4,9/25/20,8,1.293,170.74,-6.859445324,1.06,148.2,139,-3.71,-3.04,30.2,0.12,2.21,2.33,96,36,522.2,16.3,-2.2,D,964.2,2,6.137,2,1.72,175,122.6,-80.37378129,25.75816077,9.14E-02,9.14E-02,1,N,4.615374,100,100,-1.583715,133,133,140.6061,0,0.49,2.17,2.787,2,9,28.7,0,28.70000076,0.93,1507.05782,9/25/20,10:11:47,27.78,1.851,0.93,1.838,8.5,-89.3,476.3,-4.9,-378,95.7,7.49,13.1,
25.75817931,-80.37382389,31:36.4,9/25/20,8,3.46,170.74,-6.859445324,1.06,146.7,137.58,-3.08,-0.84,30.2,0.14,2.09,2.23,96,36,522.2,16.3,-2.2,D,964.2,3,19.587,2,1.76,175,115.3,-80.37364706,25.75810404,9.14E-02,9.14E-02,1,N,9.38E-02,103,103,-1.453677,39,39,115.5654,0,0.52,2.06,2.707,2,9,28.7,0,28.70000076,0.93,1507.05985,9/25/20,10:11:48,27.77,1.852,0.93,1.891,8.51,-89.8,85.6,0.7,1153,95.7,7.48,13.1,
25.75816078,-80.37382208,31:37.4,9/25/20,8,3.827,170.74,-6.859445324,1.06,139.6,130.9,-2.8,-8.6,30.2,0.14,2.14,2.28,96,36,522.2,16.3,-2.2,D,964.2,3,18.629,2,1.8,175,109.8,-80.37364706,25.75810404,9.14E-02,9.14E-02,1,N,1.700291,105,105,-1.399001,31,31,106.8101,0,9999.99,2.11,2.237,2,9,28.7,0,28.70000076,0.93,1507.05994,9/25/20,10:11:49,27.76,1.852,0.93,1.902,8.52,-90.6,171.1,-2.2,686,95.6,7.47,13.1,
25.75814516,-80.373817,31:38.4,9/25/20,7,3.513,170.74,-6.859445324,1.65,130.9,122.79,-3.71,-3.05,30.2,0.14,2.07,2.22,96,36,522.2,16.3,-2.2,D,964.2,3,17.622,2,1.76,175,105.04,-80.37364706,25.75810404,9.14E-02,9.14E-02,1,N,3.077131,99,99,-1.388144,31,31,98.7488,0,9999.99,2.05,2.177,2,9,28.7,0,28.70000076,0.93,1507.06082,9/25/20,10:11:50,27.77,1.852,0.93,1.885,8.48,-88.3,413.5,-3,1624,95.5,7.47,13,
25.75815461,-80.37381091,31:39.4,9/25/20,7,0.812,170.74,-6.859445324,1.65,120.8,113.43,-4.06,-4.55,30.2,0.14,2.05,2.19,96,37,522.2,16.3,-2.2,D,949.8,3,17.346,2,1.75,175,108.92,-80.37364706,25.75810404,9.14E-02,9.14E-02,1,N,1.881461,97,97,-1.430005,90,90,104.8339,0,9999.99,2.02,2.147,2,9,28.7,0,28.70000076,0.93,1507.06014,9/25/20,10:11:51,27.76,1.852,0.93,1.887,8.51,-90.1,160.5,-3.5,-1343,95.4,7.46,13,
25.75813977,-80.37380831,31:40.4,9/25/20,7,1.261,170.74,-6.859445324,1.65,115.6,108.62,-4.4,-2.28,30.2,0.12,2.06,2.18,96,37,522.2,16.3,-2.2,D,949.8,3,16.631,2,1.7,176,103.82,-80.37364706,25.75810404,9.14E-02,9.14E-02,1,N,3.271935,96,96,-1.573111,75,75,96.04971,0,9999.99,2.02,2.147,2,9,28.7,0,28.70000076,0.93,1507.05786,9/25/20,10:11:52,27.73,1.853,0.93,1.895,8.49,-88.3,374.8,-4.5,-128,95.2,7.45,13.1,
25.75814811,-80.37380457,31:41.5,9/25/20,7,0.535,170.74,-6.859445324,1.65,112.6,105.84,-4.04,-3.9,30.2,0.13,2.04,2.17,96,37,522.2,16.3,-2.2,D,949.8,3,16.518,2,1.69,176,107.26,-80.37364706,25.75810404,9.14E-02,9.14E-02,1,N,2.280472,98,98,-1.48712,110,110,101.6635,0,9999.99,2,2.127,2,9,28.7,0,28.70000076,0.94,1507.06793,9/25/20,10:11:53,27.69,1.855,0.94,1.939,8.51,-89.5,322.7,-1,-1682,95.2,7.45,13.1,
25.75814998,-80.3737985,31:42.4,9/25/20,7,0.543,170.74,-6.859445324,1.65,108.9,102.42,-3.08,-0.96,30.2,0.15,2.03,2.18,96,38,522.2,16.3,-2.3,D,918.5,3,16.004,2,1.69,176,108.61,-80.37364706,25.75810404,9.14E-02,9.14E-02,1,N,1.840584,102,102,-1.265901,132,132,103.6784,0,9999.99,2,2.127,2,9,28.7,0,28.70000076,0.94,1507.07308,9/25/20,10:11:54,27.66,1.855,0.94,1.976,8.49,-88.5,74.6,1.1,1158,95.1,7.45,13.1,
25.75814885,-80.37379918,31:43.5,9/25/20,7,0.655,170.74,-6.859445324,1.08,108.8,102.33,-1.67,-0.36,30.2,0.16,1.95,2.11,96,38,522.2,16.3,-2.3,D,918.5,3,16.028,2,1.75,177,108.11,-80.37364706,25.75810404,9.14E-02,9.14E-02,1,N,1.980138,110,110,-1.207017,130,130,102.833,0,9999.99,1.94,2.067,2,9,28.7,0,28.70000076,0.94,1507.07398,9/25/20,10:11:55,27.64,1.856,0.94,1.996,8.5,-89,111,-1.5,3111,95,7.44,13.1,
25.75815502,-80.37380525,31:44.5,9/25/20,6,0.493,170.74,-6.859445324,1.5,109.3,102.79,-0.78,1.6,30.2,0.15,2.03,2.18,96,38,522.2,16.3,-2.3,D,918.5,3,16.826,2,1.8,177,109.69,-80.37364706,25.75810404,9.14E-02,9.14E-02,1,N,1.622166,126,126,-1.239939,139,139,105.825,0,9999.99,2.02,2.147,2,9,28.7,0,28.70000076,0.94,1507.07354,9/25/20,10:11:56,27.63,1.856,0.94,1.957,8.49,-88.7,88.1,-5.2,1956,94.9,7.44,13.1,
25.75815876,-80.37379605,31:45.5,9/25/20,7,0.843,170.74,-6.859445324,2.73,110.7,104.09,-1.59,3.04,30.2,0.14,2.04,2.19,96,38,522.2,16.3,-2.3,D,918.5,3,16.113,2,1.84,177,112.18,-80.37364706,25.75810404,9.14E-02,9.14E-02,1,N,0.8544755,124,124,-1.336994,151,151,109.8716,0,0.49,2.03,2.647,2,9,28.7,0,28.70000076,0.94,1507.07201,9/25/20,10:11:57,27.62,1.858,0.94,1.885,8.47,-87.5,0.3,-3,-1948,94.8,7.43,13.2,
25.75815219,-80.37379975,31:46.5,9/25/20,6,0.33,170.74,-6.859445324,2.73,112.7,105.94,-2.6,5.33,30.2,0.12,2.11,2.23,96,39,522.2,16.3,-2.4,D,899.8,3,16.202,2,1.95,177,109.3,-80.37364706,25.75810404,9.14E-02,9.14E-02,1,N,1.663869,106,106,-1.582659,123,123,104.9815,0,0.48,2.09,2.697,2,9,28.6,0,28.70000076,0.94,1507.07147,9/25/20,10:11:58,27.63,1.857,0.94,1.817,8.52,-90.3,0.1,1.2,-998,94.8,7.43,13,
25.75814761,-80.37378096,31:47.5,9/25/20,6,1.215,170.74,-6.859445324,2.73,113.2,106.4,-2.88,4.51,30.3,0.12,2.1,2.21,96,39,522.2,16.3,-2.4,D,899.8,3,14.258,2,1.98,177,109.87,-80.37364706,25.75810404,9.14E-02,9.14E-02,1,N,1.324523,106,106,-1.641628,124,124,105.7368,0,0.48,2.07,2.677,2,9,28.6,0,28.60000038,0.94,1506.82765,9/25/20,10:11:59,27.63,1.858,0.94,1.795,8.47,-87.5,-0.3,-5,-188,94.6,7.42,13.2,
25.75815055,-80.37377453,31:48.5,9/25/20,6,1.173,170.74,-6.859445324,2.73,113.9,107.05,-2.89,2.27,30.2,0.12,1.97,2.08,96,39,522.2,16.3,-2.4,D,899.8,3,13.774,2,2.03,177,112.06,-80.37364706,25.75810404,9.14E-02,9.14E-02,1,N,0.7536533,106,106,-1.643116,138,138,109.7564,0,0.48,1.94,2.547,2,9,28.6,0,28.60000038,0.94,1506.82757,9/25/20,10:12:00,27.64,1.856,0.94,1.799,8.51,-89.5,0,0,-2290,94.6,7.41,13.1,
25.75815215,-80.37375633,31:49.5,9/25/20,6,1.661,170.74,-6.859445324,2.74,114.7,107.79,-3.08,2.53,30.2,0.12,2.05,2.17,96,39,522.1,16.3,-2.4,D,900.5,3,12.18,2,2.03,177,116.05,-80.37364706,25.75810404,9.14E-02,9.14E-02,1,N,0.1821908,105,105,-1.596617,163,163,116.4433,0,0.51,2.02,2.657,2,9,28.6,0,28.60000038,0.94,1506.82794,9/25/20,10:12:01,27.64,1.856,0.94,1.824,8.48,-88,-0.3,-5.6,3128,94.4,7.4,13.1,
25.75815251,-80.37373906,31:50.5,9/25/20,6,2.067,170.74,-6.859445324,2.74,117.6,110.47,-3.4,6.16,30.2,0.12,1.99,2.1,96,39,522.1,16.3,-2.4,D,900.5,3,10.674,2,2.02,177,120.33,-80.37364706,25.75810404,9.14E-02,9.14E-02,1,N,0.9600785,103,103,-1.650665,173,173,121.9824,0,0.53,1.96,2.617,2,9,28.6,0,28.60000038,0.94,1506.8276,9/25/20,10:12:02,27.64,1.856,0.94,1.859,8.49,-88.7,-1.1,-5,2668,94.3,7.39,13,
25.75815146,-80.3737566,31:51.5,9/25/20,7,1.42,170.74,-6.859445324,1.17,121.6,114.17,-3.02,9.4,30.2,0.13,1.96,2.09,96,39,522.1,16.3,-2.4,D,900.5,3,12.172,2,2.03,177,115.67,-80.37364706,25.75810404,9.14E-02,9.14E-02,1,N,0.1179082,104,104,-1.480621,134,134,115.9832,0,0.57,1.93,2.627,2,9,28.6,0,28.60000038,0.94,1506.82966,9/25/20,10:12:03,27.65,1.856,0.94,1.893,8.49,-88.4,-1.6,-4.3,3160,94.3,7.39,13.2,
25.75815541,-80.37375325,31:52.5,9/25/20,6,1.902,170.74,-6.859445324,1.17,123.4,115.83,-1.62,4.73,30.3,0.15,2.03,2.18,96,39,522.1,16.3,-2.4,D,900.5,3,12.071,2,2.05,177,118.24,-80.37364706,25.75810404,9.14E-02,9.14E-02,1,N,0.6596813,108,108,-1.307634,141,141,119.853,0,9999.99,2.01,2.137,2,9,28.6,0,28.60000038,0.94,1506.83072,9/25/20,10:12:04,27.65,1.858,0.94,1.952,8.49,-88.6,0.7,-1,-47,94.1,7.38,13.1,
25.75816022,-80.37374638,31:53.5,9/25/20,5,2.305,170.74,-6.859445324,1.5,125.6,117.87,-1.35,1.04,30.2,0.16,2.08,2.25,96,39,522.1,16.3,-2.4,D,899.7,3,11.746,2,2.06,177,122.13,-80.37364706,25.75810404,9.14E-02,9.14E-02,1,N,1.437572,112,112,-1.118846,157,157,125.3261,0,9999.99,2.07,2.197,2,9,28.6,0,28.60000038,0.94,1506.8351,9/25/20,10:12:05,27.65,1.858,0.94,1.976,8.51,-89.7,-0.3,-6.3,-824,94,7.37,13.1,
25.7581512,-80.37373369,31:54.5,9/25/20,5,2.737,170.74,-6.859445324,1.5,128.6,120.65,-0.57,6.21,30.2,0.16,2.1,2.25,96,39,522.1,16.3,-2.4,D,899.7,3,10.138,2,2.06,177,121.15,-80.37364706,25.75810404,9.14E-02,9.14E-02,1,N,1.075196,127,127,-1.187075,136,136,122.7936,0,9999.99,2.09,2.217,2,9,28.6,0,28.60000038,0.94,1506.83513,9/25/20,10:12:06,27.64,1.859,0.94,1.953,8.46,-86.9,-1.3,-6,-866,93.9,7.36,13,
25.75814863,-80.37370888,31:55.5,9/25/20,6,3.459,170.74,-6.859445324,1.65,131.3,123.16,-1.8,3.12,30.3,0.13,2.17,2.3,96,39,522.1,16.3,-2.4,D,899.7,3,7.931,2,2.04,177,128.69,-80.37364706,25.75810404,9.14E-02,9.14E-02,1,N,1.874155,112,112,-1.471074,148,148,128.3245,0,0.48,2.16,2.767,2,9,28.6,0,28.60000038,0.94,1506.83422,9/25/20,10:12:07,27.63,1.859,0.94,1.857,8.5,-89.1,0.1,-3,1755,93.8,7.36,13.1,
25.75814424,-80.37368354,31:56.5,9/25/20,7,3.879,170.74,-6.859445324,1.17,136.4,127.91,-5.69,6.63,30.3,0.11,2.22,2.32,96,39,522.1,16.3,-2.4,D,902.2,3,5.772,2,2.09,177,140.75,-80.37364706,25.75810404,9.14E-02,9.14E-02,1,N,2.523316,89,89,-1.74992,146,146,132.648,0,0.46,2.18,2.767,2,9,28.6,0,28.60000038,0.94,1506.82698,9/25/20,10:12:08,27.62,1.859,0.94,1.76,8.47,-87.2,0.1,-3.3,-2536,93.8,7.35,13.1,
25.75815633,-80.37366357,31:57.5,9/25/20,7,4.018,170.74,-6.859445324,1.26,137.7,129.12,2.51,30.3,30.3,0.06,1.93,1.98,96,39,522.1,16.3,-2.4,D,902.2,4,6.453,2,1.82,177,42.29,-80.37362021,25.75819926,9.14E-02,9.14E-02,1,N,3.126079,152,152,-2.279727,5,5,35.59193,0,0.36,1.95,2.431709,2,9,28.6,0,28.60000038,0.94,1506.81882,9/25/20,10:12:09,27.61,1.859,0.94,1.72,8.49,-88.7,-1.4,-1.8,3629,93.7,7.35,13.3,
25.75815636,-80.37363439,31:58.5,9/25/20,7,4.527,131.64,-6.859445324,1.26,126.5,118.7,1.81,-9.8,30.3,0.03,2.34,2.37,96,39,522.1,16.3,-2.4,D,902.2,4,4.978,2,1.82,177,16.57,-80.37362021,25.75819926,9.14E-02,9.14E-02,1,N,0.2998389,149,149,-2.579379,5,5,16.3958,0,9999.99,2.36,2.487,2,9,28.6,0,28.60000038,0.94,1506.81342,9/25/20,10:12:10,27.61,1.859,0.94,1.506,8.48,-87.8,-1.3,3.1,-2033,93.7,7.35,13,
25.75812874,-80.37366547,31:59.6,9/25/20,8,2.161,131.64,-6.859445324,1.15,118.1,110.93,-0.95,7.99,30.3,0,2.4,2.41,96,39,522.1,16.3,-2.4,D,902.2,5,18.848,2,1.59,177,19.61,-80.37360231,25.75828841,9.14E-02,9.14E-02,1,N,3.165407,134,134,-2.86101,5,5,22.44724,0,9999.99,2.39,2.517,2,9,28.6,0,28.60000038,0.94,1506.81202,9/25/20,10:12:11,27.61,1.858,0.94,1.155,8.49,-88.7,-0.7,-1.9,1177,93.6,7.34,13.1,
25.75812238,-80.37365237,32:00.6,9/25/20,8,1.813,131.64,-6.859445324,1.06,109.5,102.97,-0.14,-2.69,30.3,0,2.39,2.39,96,38,522.1,16.3,-2.3,D,929.5,5,19.131,2,1.57,178,15.19,-80.37360231,25.75828841,9.14E-02,9.14E-02,1,N,1.735337,140,140,-2.892543,5,5,16.81029,0,9999.99,2.39,2.517,2,9,28.6,0,28.60000038,0.94,1506.808,9/25/20,10:12:12,27.6,1.858,0.94,1.038,8.49,-88.3,0.8,-0.7,-1322,93.6,7.34,13.3,
25.75811075,-80.37364025,32:01.6,9/25/20,8,1.689,122.43,-6.859445324,1.06,103.2,97.13,-1.32,4.9,30.3,0,2.4,2.4,96,38,522.1,16.3,-2.3,D,929.5,5,20.116,2,1.6,179,10.89,-80.37360231,25.75828841,9.14E-02,9.14E-02,1,N,0.3120146,133,133,-2.896585,5,5,11.362,0,9999.99,2.39,2.517,2,9,28.6,0,28.60000038,0.94,1506.80796,9/25/20,10:12:13,27.6,1.858,0.94,1.061,8.51,-90,-1.1,-2.3,-994,93.5,7.34,13.2,
25.75810625,-80.37362639,32:02.6,9/25/20,8,1.665,109.8,-6.859445324,1.06,97.1,91.44,-2.46,-0.38,30.3,0,2.38,2.38,96,38,522.1,16.3,-2.3,D,929.5,5,20.398,2,1.61,179,6.79,-80.37360231,25.75828841,9.14E-02,9.14E-02,1,N,1.130392,126,126,-2.899487,5,5,6.288129,0,9999.99,2.36,2.487,2,9,28.6,0,28.60000038,0.94,1506.80796,9/25/20,10:12:14,27.6,1.859,0.94,1.092,8.47,-87.4,-0.8,-5.9,-2164,93.5,7.33,13.1,
25.75809904,-80.37360937,32:03.6,9/25/20,8,1.844,100.71,-6.859445324,1.06,90.9,85.63,-3.37,1,30.2,0,2.42,2.42,96,39,522,16.3,-2.4,D,892.1,5,21.069,2,1.67,180,1.92,-80.37360231,25.75828841,9.14E-02,9.14E-02,1,N,2.949712,110,110,-2.902368,5,5,0.2833893,0,9999.99,2.39,2.517,2,9,28.6,0,28.60000038,0.94,1506.80796,9/25/20,10:12:15,27.6,1.859,0.94,1.167,8.51,-89.9,0.7,-3.5,348,93.5,7.34,13.1,
25.75810328,-80.37359557,32:04.6,9/25/20,8,1.823,92.77,-6.859445324,1.06,83.9,79.01,-4.63,0.55,30.3,0,2.4,2.4,96,39,522,16.3,-2.4,D,892.1,5,20.596,2,1.72,180,358.12,-80.37360231,25.75828841,9.14E-02,9.14E-02,1,N,4.239682,104,104,-2.905608,5,5,355.5185,0,9999.99,2.36,2.487,2,9,28.6,0,28.60000038,0.94,1506.80796,9/25/20,10:12:17,27.6,1.858,0.94,1.374,8.51,-89.7,-2.3,-1.8,746,93.6,7.34,13.3,
25.75810497,-80.37358452,32:05.6,9/25/20,8,1.871,88.11,-6.859445324,1.06,79.6,74.91,-7.22,-0.05,30.3,0.01,2.36,2.37,96,39,522,16.3,-2.4,D,892.1,5,20.475,2,1.76,180,355.01,-80.37360231,25.75828841,9.14E-02,9.14E-02,1,N,5.294695,90,90,-2.861968,5,5,351.6966,0,9999.99,2.31,2.437,2,9,28.6,0,28.60000038,0.94,1506.80796,9/25/20,10:12:17,27.6,1.858,0.94,1.374,8.51,-89.7,-2.3,-1.8,746,93.6,7.34,13.3,
25.75810908,-80.37357246,32:06.6,9/25/20,8,1.902,83.31,-6.859445324,1.06,72.1,67.7,-7.47,-2.76,30.3,0.04,2.3,2.34,96,39,522,16.3,-2.4,D,892.1,5,20.163,2,1.82,181,351.47,-80.37360231,25.75828841,9.14E-02,9.14E-02,1,N,6.391807,82,82,-2.535633,5,5,347.4073,0,0.44,2.23,2.797,2,9,28.5,0,28.60000038,0.94,1506.81257,9/25/20,10:12:18,27.6,1.858,0.94,1.609,8.5,-89.1,-0.4,-1.7,367,93.6,7.34,13.1,
25.75811188,-80.37356324,32:07.6,9/25/20,8,1.762,83.31,-6.859445324,1.06,61.5,57.37,-6.45,-2.4,30.3,0.12,2.2,2.32,96,44,522,16.3,-2.7,D,798.6,5,20.016,2,1.79,181,348.73,-80.37360231,25.75828841,9.14E-02,9.14E-02,1,N,7.260118,84,84,-1.581589,5,5,344.0502,0,9999.99,2.14,2.267,2,9,28.5,0,28.5,0.94,1506.58882,9/25/20,10:12:20,27.61,1.858,0.94,2.173,8.5,-89.3,-0.2,-2.8,1079,93.7,7.35,13.1,
25.75811649,-80.37355325,32:08.6,9/25/20,6,1.876,83.31,-6.859445324,2.76,49.2,45.18,-4.59,-0.56,30.3,0.2,2.1,2.3,96,44,522,16.3,-2.7,D,798.6,5,19.738,2,1.77,181,345.59,-80.37360231,25.75828841,9.14E-02,9.14E-02,1,N,8.180737,90,90,-0.7968372,5,5,340.1837,0,0.38,2.06,2.567,2,9,28.5,0,28.5,0.94,1506.58882,9/25/20,10:12:20,27.61,1.858,0.94,2.173,8.5,-89.3,-0.2,-2.8,1079,93.7,7.35,13.1,
25.75812049,-80.37354506,32:09.6,9/25/20,5,1.88,83.31,-6.859445324,2.82,37.5,33.42,-2.8,0.36,30.3,0.23,2.03,2.26,96,44,522,16.3,-2.7,D,798.6,5,19.532,2,1.73,181,342.93,-80.37360231,25.75828841,9.14E-02,9.14E-02,1,N,8.918669,97,97,-0.4533048,57,57,337.0328,0,0.41,2,2.537,2,9,28.5,0,28.5,0.94,1506.60612,9/25/20,10:12:21,27.61,1.857,0.94,2.295,8.48,-88.1,-0.6,-1.1,-362,93.8,7.36,13.2,
25.75812595,-80.37353735,32:10.6,9/25/20,4,1.985,83.31,-6.859445324,3.64,29.7,25.51,-1.49,2.15,30.3,0.24,1.97,2.22,96,44,522,16.3,-2.7,D,798.6,5,19.2,2,1.75,181,340.19,-80.37360231,25.75828841,9.14E-02,9.14E-02,1,N,9.587197,106,106,-0.2591409,65,65,333.7739,0,0.41,1.96,2.497,2,9,28.5,0,28.5,0.94,1506.60843,9/25/20,10:12:22,27.61,1.856,0.94,2.345,8.52,-90.5,-0.8,0.7,1015,93.8,7.36,13,
25.75813283,-80.37352512,32:11.6,9/25/20,3,2.208,83.31,-6.859445324,4.83,21.1,16.74,-0.9,0.6,30.3,0.25,1.96,2.21,96,44,522,16.3,-2.7,D,789.8,5,18.948,2,1.8,182,335.92,-80.37360231,25.75828841,9.14E-02,9.14E-02,1,N,10.67179,108,108,-0.1457151,70,70,328.8505,0,0.39,1.95,2.467,2,9,28.5,0,28.5,0.94,1506.61122,9/25/20,10:12:23,27.62,1.856,0.94,2.341,8.48,-88.1,-0.1,-2.1,683,93.9,7.36,13.2,
25.75814086,-80.37352291,32:12.7,9/25/20,0,2.208,83.31,-6.859445324,99.99,14.2,9.68,-0.75,0.82,30.3,0.23,1.97,2.19,96,44,522,16.3,-2.7,D,789.8,5,18.232,2,1.85,182,334.14,-80.37360231,25.75828841,9.14E-02,9.14E-02,1,N,10.74351,111,111,-0.4321458,75,75,326.7497,0,0.37,1.96,2.457,2,9,28.5,0,28.5,0.94,1506.60729,9/25/20,10:12:25,27.62,1.856,0.94,2.183,8.49,-88.3,-0.6,-3.8,1299,93.9,7.36,13.1,
25.75814943,-80.37352178,32:13.7,9/25/20,3,2.208,83.31,-6.859445324,2.01,7.8,3.13,-1.46,1.98,30.2,0.2,2,2.2,96,44,522,16.3,-2.7,D,789.8,5,17.431,2,1.88,182,332.44,-80.37360231,25.75828841,9.14E-02,9.14E-02,1,N,10.69943,109,109,-0.7641309,5,5,324.8231,0,0.33,1.99,2.447,2,9,28.5,0,28.5,0.94,1506.60729,9/25/20,10:12:25,27.62,1.856,0.94,2.183,8.49,-88.3,-0.6,-3.8,1299,93.9,7.36,13.1,
25.75815828,-80.37352229,32:14.7,9/25/20,3,2.208,83.31,-6.859445324,2.01,354.8,349.83,-2.54,-1.67,30.3,0.16,2.07,2.23,96,44,522,16.3,-2.7,D,788.6,5,16.54,2,1.89,182,331.02,-80.37360231,25.75828841,9.14E-02,9.14E-02,1,N,10.50433,107,107,-1.070408,13,13,323.2441,0,0.31,2.05,2.487,2,9,28.5,0,28.5,0.94,1506.59773,9/25/20,10:12:26,27.63,1.856,0.94,2.09,8.51,-89.5,-0.2,-2.2,635,94,7.37,12.9,
25.75816648,-80.37352512,32:15.7,9/25/20,0,2.208,83.31,-6.859445324,99.99,340.7,335.46,-3.1,-0.52,30.3,0.14,2.18,2.31,96,44,522,16.3,-2.7,D,788.6,5,15.607,2,1.85,182,330.31,-80.37360231,25.75828841,9.14E-02,9.14E-02,1,N,10.07516,102,102,-1.339292,67,67,322.4785,0,9999.99,2.15,2.277,2,9,28.5,0,28.5,0.94,1506.59213,9/25/20,10:12:28,27.63,1.856,0.94,1.986,8.5,-89.3,0.2,-2.6,2686,94,7.37,13.1,
25.75817442,-80.37352974,32:16.7,9/25/20,0,2.208,83.31,-6.859445324,99.99,332.2,326.84,-4.61,-0.14,30.2,0.12,2.2,2.32,96,44,522,16.3,-2.7,D,788.6,5,14.611,2,1.83,182,330.17,-80.37360231,25.75828841,9.14E-02,9.14E-02,1,N,9.486594,95,95,-1.624098,110,110,322.5319,0,9999.99,2.16,2.287,2,9,28.5,0,28.5,0.94,1506.59213,9/25/20,10:12:28,27.63,1.856,0.94,1.986,8.5,-89.3,0.2,-2.6,2686,94,7.37,13.1,
25.75818147,-80.37353502,32:17.7,9/25/20,0,2.208,83.31,-6.859445324,99.99,328.5,323.09,-4.69,0.43,30.3,0.12,2.17,2.3,96,44,522,16.3,-2.7,D,788.6,5,13.667,2,1.85,182,330.46,-80.37360231,25.75828841,9.14E-02,9.14E-02,1,N,8.832355,94,94,-1.539256,128,128,323.2605,0,0.34,2.13,2.597,2,9,28.5,0,28.5,0.94,1506.58809,9/25/20,10:12:29,27.63,1.855,0.94,2.037,8.52,-90.6,-1,-4.7,-1499,93.9,7.36,13.2,
25.75818811,-80.37354022,32:18.7,9/25/20,0,2.208,83.31,-6.859445324,99.99,327.8,322.38,-3.6,1.48,30.3,0.16,2.2,2.36,96,45,521.9,16.3,-2.7,D,775.9,5,12.769,2,1.92,182,330.86,-80.37360231,25.75828841,9.14E-02,9.14E-02,1,N,8.180307,97,97,-1.199983,131,131,324.6414,0,0.37,2.16,2.657,2,9,28.5,0,28.5,0.94,1506.59426,9/25/20,10:12:31,27.64,1.855,0.94,2.27,8.51,-90,-1.6,-3.5,2443,93.9,7.36,13.3,
25.75819611,-80.37354667,32:19.7,9/25/20,0,2.208,83.31,-6.859445324,99.99,328.5,323.09,-2,4.3,30.3,0.19,2.14,2.34,96,45,521.9,16.3,-2.7,D,775.9,5,11.678,2,2.02,182,331.5,-80.37360231,25.75828841,9.14E-02,9.14E-02,1,N,7.391626,106,106,-0.7823265,145,145,327.5176,0,0.39,2.12,2.637,2,9,28.5,0,28.5,0.94,1506.59426,9/25/20,10:12:31,27.64,1.855,0.94,2.27,8.51,-90,-1.6,-3.5,2443,93.9,7.36,13.3,
25.75820385,-80.37355272,32:20.7,9/25/20,0,2.208,83.31,-6.859445324,99.99,330.6,325.21,-0.12,6.64,30.3,0.19,2.11,2.3,96,45,521.9,16.3,-2.7,D,775.9,5,10.634,2,2.1,182,332.16,-80.37360231,25.75828841,9.14E-02,9.14E-02,1,N,6.655141,127,127,-0.8366666,148,148,330.4967,0,0.39,2.11,2.627,2,9,28.5,0,28.5,0.94,1506.6004,9/25/20,10:12:32,27.64,1.855,0.94,2.327,8.48,-88.2,-0.3,-3.5,1066,94,7.37,13,
25.7582122,-80.37355887,32:21.7,9/25/20,0,2.208,83.31,-6.859445324,99.99,332.2,326.84,-1.25,8.6,30.3,0.16,2.19,2.34,96,45,521.9,16.3,-2.7,D,784,5,9.526,2,2.17,182,332.83,-80.37360231,25.75828841,9.14E-02,9.14E-02,1,N,5.894987,113,113,-1.173298,155,155,333.8673,0,0.37,2.18,2.677,2,9,28.5,0,28.5,0.94,1506.5973,9/25/20,10:12:33,27.64,1.854,0.94,2.303,8.5,-89.5,-0.6,-6.4,-1846,94,7.37,13.1,
25.75822084,-80.37356452,32:22.7,9/25/20,0,2.208,83.31,-6.859445324,99.99,335.6,330.28,-2.53,11.1,30.3,0.11,2.2,2.31,96,45,521.9,16.3,-2.7,D,784,5,8.412,2,2.26,182,333.27,-80.37360231,25.75828841,9.14E-02,9.14E-02,1,N,5.140491,108,108,-1.638521,156,156,337.5274,0,0.36,2.18,2.667,2,9,28.5,0,28.5,0.94,1506.58985,9/25/20,10:12:34,27.65,1.854,0.94,2.171,8.49,-88.7,0,-4,-1177,94,7.37,13.1,
25.75823079,-80.37357005,32:23.7,9/25/20,0,2.208,83.31,-6.859445324,99.99,340,334.75,-2.36,11.1,30.3,0.1,2.1,2.19,96,45,521.9,16.3,-2.7,D,784,5,7.175,2,2.34,182,333.24,-80.37360231,25.75828841,9.14E-02,9.14E-02,1,N,4.407703,109,109,-1.824333,154,154,341.3952,0,0.35,2.07,2.553488,2,9,28.5,0,28.5,0.93,1506.57408,9/25/20,10:12:36,27.66,1.854,0.93,2.165,8.5,-89.2,-1.1,-3.6,333,93.9,7.36,13.3,
25.75824075,-80.37357491,32:24.8,9/25/20,0,2.208,83.31,-6.859445324,99.99,343.5,338.31,-2.62,11.3,30.3,0.09,2.06,2.15,96,45,521.9,16.3,-2.7,D,784,5,5.967,2,2.35,181,332.62,-80.37360231,25.75828841,9.14E-02,9.14E-02,1,N,3.724333,108,108,-1.869707,155,155,345.2858,0,0.36,2.04,2.528232,2,9,28.5,0,28.5,0.93,1506.57408,9/25/20,10:12:36,27.66,1.854,0.93,2.165,8.5,-89.2,-1.1,-3.6,333,93.9,7.36,13.3,
25.75825052,-80.37357889,32:25.8,9/25/20,0,2.208,83.31,-6.859445324,99.99,348.3,343.2,-2.61,11.8,30.2,0.09,1.97,2.06,96,44,521.9,16.3,-2.7,D,797.1,6,16.922,2,2.36,181,294.96,-80.37373207,25.75831474,9.14E-02,9.14E-02,1,N,3.71032,109,109,-1.891672,5,5,301.5949,0,0.37,1.94,2.440835,2,9,28.5,0,28.5,0.93,1506.57329,9/25/20,10:12:37,27.67,1.853,0.93,2.181,8.5,-89.4,-0.1,-4.9,535,93.9,7.36,13.4,
25.75826056,-80.37358289,32:26.8,9/25/20,0,2.208,83.31,-6.859445324,99.99,340.3,335.06,-2.4,-8.3,30.3,0.09,1.96,2.06,96,44,521.9,16.3,-2.7,D,797.1,6,16.109,2,2.3,181,291.96,-80.37373207,25.75831474,9.14E-02,9.14E-02,1,N,2.696484,110,110,-1.841185,5,5,297.4023,0,0.38,1.94,2.447,2,9,28.5,0,28.5,0.93,1506.57324,9/25/20,10:12:39,27.69,1.853,0.93,2.25,8.48,-87.8,-1.4,0.1,-1711,94,7.36,13.3,
25.7582694,-80.37358892,32:27.8,9/25/20,0,2.208,83.31,-6.859445324,99.99,325.7,320.25,-5.3,-5.78,30.3,0.11,1.98,2.09,96,44,521.8,16.3,-2.6,D,805.4,6,15.196,2,2.19,180,289.38,-80.37373207,25.75831474,9.14E-02,9.14E-02,1,N,1.858069,94,94,-1.638157,12,12,293.6668,0,0.38,1.94,2.445766,2,9,28.5,0,28.5,0.93,1506.57324,9/25/20,10:12:39,27.69,1.853,0.93,2.25,8.48,-87.8,-1.4,0.1,-1711,94,7.36,13.3,
25.75827647,-80.37359674,32:28.8,9/25/20,0,2.208,83.31,-6.859445324,99.99,312,306.4,-5.32,1.86,30.3,0.09,1.97,2.05,96,44,521.8,16.3,-2.6,D,805.4,6,14.206,2,2.05,180,287.43,-80.37373207,25.75831474,9.14E-02,9.14E-02,1,N,1.231974,93,93,-1.870727,55,55,290.6793,0,0.41,1.92,2.457,2,9,28.5,0,28.5,0.93,1506.57411,9/25/20,10:12:40,27.69,1.853,0.93,2.265,8.51,-89.8,-0.5,-0.6,-1020,94,7.36,13.5,
25.75828163,-80.37360553,32:29.8,9/25/20,0,2.208,83.31,-6.859445324,99.99,303,297.3,-4.2,0.8,30.3,0.04,1.93,1.97,96,44,521.8,16.3,-2.6,D,805.4,6,13.196,2,1.94,180,286.2,-80.37373207,25.75831474,9.14E-02,9.14E-02,1,N,0.8379146,102,102,-2.410134,93,93,288.6805,0,0.44,1.89,2.457,2,9,28.5,0,28.5,0.93,1506.56547,9/25/20,10:12:42,27.7,1.852,0.93,2.458,8.5,-89.4,0,-5.8,-210,94,7.36,13.1,
25.75828566,-80.37361474,32:30.8,9/25/20,0,2.208,83.31,-6.859445324,99.99,296.2,290.4,-3,0.32,30.3,0.04,1.83,1.87,96,43,521.8,16.3,-2.6,D,812.8,6,12.187,2,1.93,180,285.39,-80.37373207,25.75831474,9.14E-02,9.14E-02,1,N,0.5927323,110,110,-2.451905,113,113,286.9349,0,0.46,1.81,2.397,2,9,28.5,0,28.5,0.93,1506.56342,9/25/20,10:12:43,27.7,1.852,0.93,2.485,8.5,-89.2,-0.6,-4,1247,94,7.36,13.2,
25.75828878,-80.37362394,32:31.8,9/25/20,0,2.208,83.31,-6.859445324,99.99,293.7,287.86,-2.29,0.28,30.3,0.06,1.85,1.91,96,43,521.8,16.3,-2.6,D,812.8,6,11.206,2,1.89,180,284.93,-80.37373207,25.75831474,9.14E-02,9.14E-02,1,N,0.4502552,113,113,-2.28355,119,119,285.9182,0,0.46,1.83,2.417,2,9,28.5,0,28.5,0.93,1506.56636,9/25/20,10:12:44,27.7,1.852,0.93,2.501,8.5,-89.2,-0.4,-1.5,1146,94,7.36,13.2,
25.75829155,-80.37363289,32:32.8,9/25/20,0,2.208,83.31,-6.859445324,99.99,292.8,286.95,-2.74,-0.26,30.3,0.05,1.84,1.9,96,43,521.8,16.3,-2.6,D,812.8,6,10.261,2,1.93,180,284.55,-80.37373207,25.75831474,9.14E-02,9.14E-02,1,N,0.3430302,111,111,-2.26358,120,120,285.1524,0,0.46,1.82,2.407,2,9,28.5,0,28.5,0.93,1506.56636,9/25/20,10:12:44,27.7,1.852,0.93,2.501,8.5,-89.2,-0.4,-1.5,1146,94,7.36,13.2,
25.75829429,-80.37364232,32:33.8,9/25/20,0,2.208,83.31,-6.859445324,99.99,292.4,286.54,-3.1,1.92,30.3,0.03,1.83,1.86,96,43,521.8,16.3,-2.6,D,812.8,6,9.271,2,2.02,180,284.2,-80.37373207,25.75831474,9.14E-02,9.14E-02,1,N,0.2535753,109,109,-2.502961,119,119,284.5124,0,0.47,1.8,2.397,2,9,28.5,0,28.5,0.93,1506.56442,9/25/20,10:12:45,27.7,1.852,0.93,2.517,8.52,-90.3,-0.6,-3.2,1678,94,7.36,13.3,
25.75829736,-80.37365312,32:34.8,9/25/20,0,2.208,83.31,-6.859445324,99.99,292.3,286.44,-3.14,3.64,30.3,0.05,1.8,1.84,96,42,521.8,16.3,-2.6,D,831.8,6,8.139,2,2.03,180,283.73,-80.37373207,25.75831474,9.14E-02,9.14E-02,1,N,0.1564605,110,110,-2.39456,117,117,283.8173,0,0.48,1.77,2.377,2,9,28.5,0,28.5,0.93,1506.56384,9/25/20,10:12:46,27.7,1.851,0.93,2.534,8.48,-88.1,-0.4,-2.6,-416,93.9,7.35,13.3,
25.7583001,-80.37366334,32:35.8,9/25/20,0,2.208,83.31,-6.859445324,99.99,291.7,285.83,-2.56,2.22,30.3,0.06,1.78,1.84,96,42,521.8,16.3,-2.6,D,831.8,6,7.073,2,2.17,180,283.31,-80.37373207,25.75831474,9.14E-02,9.14E-02,1,N,8.55E-02,111,111,-2.262687,117,117,283.3088,0,0.49,1.76,2.377,2,9,28.5,0,28.5,0.93,1506.56642,9/25/20,10:12:47,27.7,1.851,0.93,2.585,8.51,-90,-0.5,-0.3,-641,94,7.36,13.3,
25.75830267,-80.37367308,32:36.8,9/25/20,0,2.208,83.31,-6.859445324,99.99,291.4,285.52,-2.15,1.76,30.3,0.06,1.75,1.81,96,42,521.8,16.3,-2.6,D,831.8,6,6.058,2,2.23,180,282.8,-80.37373207,25.75831474,9.14E-02,9.14E-02,1,N,1.85E-02,124,124,-2.26761,116,116,282.8294,0,0.5,1.73,2.357,2,9,28.5,0,28.5,0.93,1506.56705,9/25/20,10:12:49,27.7,1.851,0.93,2.642,8.5,-89.5,-1.1,-3.3,604,93.8,7.35,13.3,
25.75830551,-80.37368423,32:37.8,9/25/20,0,2.208,83.31,-6.859445324,99.99,290.3,284.41,-3.04,1.79,30.3,0.06,1.71,1.77,96,42,521.7,16.3,-2.5,D,839.7,7,16.832,2,2.22,180,315.79,-80.37380143,25.75841401,0,0,1,N,3.605867,43,43,11,228,228,309.6779,0,0.5,1.69,2.317,2,9,28.5,0,28.5,0.93,1506.56705,9/25/20,10:12:49,27.7,1.851,0.93,2.642,8.5,-89.5,-1.1,-3.3,604,93.8,7.35,13.3,
25.75830828,-80.37369512,32:38.8,9/25/20,0,2.208,83.31,-6.859445324,99.99,295.9,290.1,1.09,12.3,30.3,0.06,1.7,1.76,96,42,521.7,16.3,-2.5,D,839.7,7,15.861,2,2.18,180,317.84,-80.37380143,25.75841401,0,0,1,N,2.837428,57,57,11,223,223,312.3524,0,0.51,1.68,2.317,2,9,28.5,0,28.5,0.93,1506.56716,9/25/20,10:12:50,27.7,1.852,0.93,2.662,8.49,-88.8,-0.4,-5.2,407,93.8,7.34,13.1,
25.75831246,-80.37370498,32:39.8,9/25/20,0,2.208,83.31,-6.859445324,99.99,307.2,301.55,6.82,14.4,30.2,0.04,1.7,1.73,96,42,521.7,16.3,-2.5,D,839.7,7,14.86,2,2.12,180,319.46,-80.37380143,25.75841401,0,0,1,N,2.216452,94,94,11,185,185,314.6195,0,9999.99,1.74,1.863587,2,9,28.5,0,28.5,0.93,1506.56475,9/25/20,10:12:52,27.69,1.851,0.93,2.357,8.51,-90.1,-1.3,-3.6,626,93.8,7.35,13.2,
25.75831884,-80.37371424,32:40.8,9/25/20,0,2.208,83.31,-6.859445324,99.99,317.2,311.66,11.2,5.57,30.2,0.04,1.84,1.88,96,42,521.7,16.3,-2.5,D,839.7,7,13.719,2,2.03,180,320.47,-80.37380143,25.75841401,0,0,1,N,1.786265,134,134,11,144,144,315.9972,0,0.41,1.93,2.47074,2,9,28.5,0,28.5,0.93,1506.56475,9/25/20,10:12:52,27.69,1.851,0.93,2.357,8.51,-90.1,-1.3,-3.6,626,93.8,7.35,13.2,
25.75832516,-80.3737215,32:41.8,9/25/20,0,2.208,83.31,-6.859445324,99.99,321.6,316.1,9.3,6.93,30.2,0.06,2.05,2.11,96,44,521.7,16.3,-2.6,D,804.6,7,12.716,2,2.03,180,320.99,-80.37380143,25.75841401,0,0,1,N,1.540696,113,113,11,130,130,316.9224,0,0.38,2.14,2.648236,2,9,28.5,0,28.5,0.93,1506.56663,9/25/20,10:12:53,27.7,1.851,0.93,1.804,8.48,-88.1,-1.1,-2.8,915,93.9,7.35,13.3,
25.75833211,-80.37372856,32:42.8,9/25/20,8,2.208,83.31,-6.859445324,1.27,325,319.54,-0.06,0.39,30.3,0.03,2.29,2.31,96,44,521.7,16.3,-2.6,D,804.6,7,11.671,2,2.05,180,321.29,-80.37380143,25.75841401,0,0,1,N,1.346057,58,58,11,123,123,318.2671,0,9999.99,2.3,2.427,2,9,28.5,0,28.5,0.93,1506.56394,9/25/20,10:12:55,27.71,1.847,0.93,1.019,8.47,-87.4,10,-3.1,-25,94.3,7.38,13.3,
25.75833965,-80.37373544,32:43.8,9/25/20,8,2.208,83.31,-6.859445324,1.37,326.4,320.96,2.77,4.62,30.3,0,2.27,2.27,96,44,521.7,16.3,-2.6,D,804.6,7,10.585,2,2.03,180,321.37,-80.37380143,25.75841401,0,0,1,N,1.202569,74,74,11,120,120,319.2706,0,9999.99,2.28,2.407,2,9,28.5,0,28.5,0.93,1506.56394,9/25/20,10:12:55,27.71,1.847,0.93,1.019,8.47,-87.4,10,-3.1,-25,94.3,7.38,13.3,
25.75834703,-80.37374211,32:44.8,9/25/20,8,2.208,83.31,-6.859445324,1.07,326.6,321.16,3.53,4.96,30.3,0.01,2.3,2.3,96,43,521.7,16.3,-2.6,D,823.7,7,9.527,2,2.01,180,321.42,-80.37380143,25.75841401,0,0,1,N,1.076815,78,78,11,123,123,320.153,0,9999.99,2.33,2.457,2,9,28.5,0,28.5,0.93,1506.55796,9/25/20,10:12:56,27.75,1.847,0.93,1.111,8.49,-88.9,-0.1,-4.1,-699,94.3,7.38,13.3,
25.75835432,-80.37374872,32:45.8,9/25/20,8,2.208,83.31,-6.859445324,1.07,325.6,320.15,2.82,4.39,30.3,0,2.33,2.33,96,43,521.7,16.3,-2.6,D,823.7,7,8.481,2,2.06,180,321.51,-80.37380143,25.75841401,0,0,1,N,0.9502919,72,72,11,129,129,321.0448,0,9999.99,2.35,2.477,2,9,28.5,0,28.5,0.93,1506.55847,9/25/20,10:12:58,27.89,1.842,0.93,1.056,8.49,-88.6,0,-2.2,397,94.5,7.38,13,
25.75836159,-80.37375534,32:46.8,9/25/20,8,2.208,83.31,-6.859445324,1.07,326.8,321.37,3.09,5.29,30.3,0,2.25,2.26,96,43,521.7,16.3,-2.6,D,823.7,7,7.435,2,2.06,180,321.63,-80.37380143,25.75841401,0,0,1,N,0.814967,76,76,11,130,130,322.0024,0,9999.99,2.28,2.407,2,9,28.5,0,28.5,0.93,1506.55803,9/25/20,10:12:59,27.96,1.84,0.93,0.97,8.48,-87.9,-1.1,-5.2,-1365,94.5,7.37,13.2,
25.75836894,-80.37376203,32:47.8,9/25/20,8,2.208,83.31,-6.859445324,1.07,326,320.56,2.44,4.75,30.3,0,2.33,2.33,96,43,521.7,16.3,-2.6,D,823.7,7,6.379,2,2.13,180,321.79,-80.37380143,25.75841401,0,0,1,N,0.6882907,72,72,11,136,136,322.9015,0,9999.99,2.35,2.477,2,9,28.6,0,28.5,0.93,1506.55803,9/25/20,10:12:59,27.96,1.84,0.93,0.97,8.48,-87.9,-1.1,-5.2,-1365,94.5,7.37,13.2,
25.75837068,-80.37383232,32:48.8,9/25/20,8,2.015,316.54,-6.859445324,1.07,326.9,321.47,2.34,7.07,30.3,0,2.32,2.33,96,42,521.6,16.3,-2.6,D,833.8,7,5.726,2,2.12,180,32.7,-80.37380143,25.75841401,0,0,1,N,5.166279,72,72,11,250,250,0.6713117,0,9999.99,2.35,2.477,2,9,28.6,0,28.60000038,0.93,1506.79795,9/25/20,10:13:00,28.03,1.838,0.93,1.028,8.48,-88.4,-0.6,-3.3,-1612,94.6,7.37,13.1,
25.75837673,-80.37383814,32:49.8,9/25/20,8,1.986,318.87,-6.859445324,1.07,334.6,329.27,2.59,6.5,30.3,0,2.33,2.33,96,42,521.6,16.3,-2.6,D,833.8,7,5.541,2,2.08,179,41.57,-80.37380143,25.75841401,0,0,1,N,5.318223,69,69,11,250,250,1.432732,0,9999.99,2.34,2.46946,2,9,28.6,0,28.60000038,0.92,1506.78731,9/25/20,10:13:02,28.15,1.833,0.92,1.013,8.46,-87.1,-0.8,-1.7,375,94.5,7.34,13,
25.75838272,-80.37384051,32:50.8,9/25/20,8,1.989,317.78,-6.859445324,1.07,345.6,340.45,4.42,4.53,30.3,0.01,2.35,2.36,96,42,521.6,16.3,-2.6,D,833.8,8,5.237,2,2,174,48.36,-80.37380143,25.75841401,0,0,6,N,5.3158,84,84,11,250,250,47.22541,0,9999.99,2.39,2.517,2,9,28.6,0,28.60000038,0.92,1506.78731,9/25/20,10:13:02,28.15,1.833,0.92,1.013,8.46,-87.1,-0.8,-1.7,375,94.5,7.34,13,
25.75839012,-80.37384002,32:51.8,9/25/20,8,1.668,322.64,-6.859445324,1.07,357.1,352.18,4.09,6.98,30.3,0.01,2.34,2.36,96,36,521.6,16.3,-2.2,D,969.2,8,4.69,2,1.84,128,55.49,-80.37380143,25.75841401,0,0,6,N,5.3158,82,82,11,250,250,54.21317,0,9999.99,2.39,2.517,2,9,28.6,0,28.60000038,0.92,1506.78891,9/25/20,10:13:03,28.19,1.832,0.92,0.966,8.5,-89.5,-2,-3.9,-1012,94.4,7.33,13.2,
25.75839709,-80.37384001,32:52.8,9/25/20,8,1.431,327.78,-6.859445324,1.07,6.8,2.11,5.12,-0.54,30.2,0.01,2.37,2.38,96,36,521.6,16.3,-2.2,D,969.2,8,4.298,2,1.65,128,64.04,-80.37380143,25.75841401,0,0,6,N,5.3158,87,87,11,250,250,62.94678,0,9999.99,2.41,2.537,2,9,28.6,0,28.60000038,0.92,1506.78894,9/25/20,10:13:05,28.27,1.829,0.92,0.966,8.49,-89.1,-0.8,-2.1,1809,94.3,7.31,13.3,
25.75840341,-80.37383578,32:53.8,9/25/20,8,1.056,336.52,-6.859445324,1.07,12.6,8.04,5.49,-0.48,30.2,0.01,2.33,2.34,96,36,521.6,16.3,-2.2,D,969.2,8,3.637,2,1.4,128,71.09,-80.37380143,25.75841401,0,0,6,N,5.3158,90,90,11,250,250,69.9843,0,9999.99,2.38,2.507,2,9,28.6,0,28.60000038,0.92,1506.78894,9/25/20,10:13:05,28.27,1.829,0.92,0.966,8.49,-89.1,-0.8,-2.1,1809,94.3,7.31,13.3,
25.75840818,-80.37383249,32:54.8,9/25/20,8,0.865,343.24,-6.859445324,1.07,17.6,13.16,4.68,-2.86,30.2,0.01,2.34,2.36,96,36,521.6,16.3,-2.2,D,969.2,8,3.177,2,1.18,128,78.23,-80.37380143,25.75841401,0,0,6,N,5.3158,85,85,11,250,250,77.14645,0,9999.99,2.39,2.517,2,9,28.7,0,28.60000038,0.92,1506.78917,9/25/20,10:13:06,28.3,1.828,0.92,0.963,8.47,-87.7,-2.2,-1.4,-394,94.2,7.3,13.1,
25.758412,-80.37382879,32:55.9,9/25/20,8,0.729,349.82,-6.859445324,1.07,23,18.68,4.15,-2.49,30.2,0,2.34,2.35,96,21,521.6,16.3,-1.2,D,1681.7,8,2.75,2,0.98,128,85.33,-80.37380143,25.75841401,0,0,6,N,5.3158,82,82,11,250,250,84.29452,0,9999.99,2.38,2.507,2,9,28.7,0,28.70000076,0.92,1507.02732,9/25/20,10:13:08,28.35,1.826,0.92,0.967,8.48,-88.4,-1.1,-6.3,-522,94,7.27,13.2,
25.75841387,-80.3738245,32:56.9,9/25/20,8,0.673,354.59,-6.859445324,1.07,27.6,23.37,4.01,-3.45,30.3,0,2.33,2.34,96,21,521.6,16.3,-1.2,D,1681.7,8,2.312,2,0.85,128,89.62,-80.37380143,25.75841401,0,0,6,N,5.3158,81,81,11,250,250,88.5441,0,9999.99,2.37,2.497,2,9,28.7,0,28.70000076,0.92,1507.02732,9/25/20,10:13:08,28.35,1.826,0.92,0.967,8.48,-88.4,-1.1,-6.3,-522,94,7.27,13.2,
25.75841548,-80.373822,32:57.9,9/25/20,8,0.594,1.39,-6.859445324,1.07,31.2,27.03,4.33,-2.25,30.3,0,2.33,2.33,96,21,521.6,16.3,-1.2,D,1681.7,8,2.067,2,0.72,128,94.55,-80.37380143,25.75841401,0,0,6,N,5.3158,83,83,11,250,250,93.508,0,9999.99,2.37,2.497,2,9,28.7,0,28.70000076,0.92,1507.02642,9/25/20,10:13:09,28.36,1.824,0.92,0.955,8.49,-88.8,-0.6,-5.3,-433,93.8,7.26,13.2,
25.75841762,-80.37381933,32:58.9,9/25/20,8,0.539,5.9,-6.859445324,1.07,35.3,31.19,4.75,-2.26,30.3,0,2.33,2.33,96,21,521.5,16.3,-1.2,D,1675.1,8,1.838,2,0.63,128,102.64,-80.37380143,25.75841401,0,0,6,N,5.3158,85,85,11,250,250,101.5743,0,9999.99,2.37,2.497,2,9,28.7,0,28.70000076,0.92,1507.02666,9/25/20,10:13:11,28.39,1.823,0.92,0.959,8.48,-88.4,-1,-4.2,1181,93.8,7.26,13.1,
25.75841926,-80.37381676,32:59.9,9/25/20,8,0.389,5.9,-6.859445324,1.07,37.5,33.42,5.08,-2.56,30.3,0,2.32,2.32,96,21,521.5,16.3,-1.2,D,1675.1,8,1.642,2,0.57,128,110.8,-80.37380143,25.75841401,0,0,6,N,5.3158,87,87,11,250,250,109.7244,0,9999.99,2.36,2.487,2,9,28.7,0,28.70000076,0.92,1507.02666,9/25/20,10:13:11,28.39,1.823,0.92,0.959,8.48,-88.4,-1,-4.2,1181,93.8,7.26,13.1,
25.75842086,-80.37381463,33:00.9,9/25/20,8,0.374,5.9,-6.859445324,1.07,40.3,36.25,4.84,-3.25,30.3,0,2.32,2.32,96,21,521.5,16.3,-1.2,D,1675.1,8,1.525,2,0.5,128,119.95,-80.37380143,25.75841401,0,0,6,N,5.3158,86,86,11,250,250,118.9048,0,9999.99,2.36,2.487,2,9,28.7,0,28.70000076,0.92,1507.0272,9/25/20,10:13:12,28.4,1.822,0.92,0.959,8.51,-89.9,-0.7,-2.8,123,93.8,7.25,13.1,
25.75842185,-80.37381266,33:01.9,9/25/20,8,0.361,5.9,-6.859445324,1.07,42.9,38.87,4.49,-2.51,30.3,0,2.33,2.33,96,21,521.5,16.3,-1.2,D,1675.1,8,1.424,2,0.46,128,127.79,-80.37380143,25.75841401,0,0,6,N,5.3158,85,85,11,250,250,126.7566,0,9999.99,2.37,2.497,2,9,28.7,0,28.70000076,0.92,1507.02686,9/25/20,10:13:14,28.41,1.821,0.92,0.973,8.49,-89,-2.8,-2.7,343,93.7,7.24,13.1,
25.75842319,-80.37381007,33:02.9,9/25/20,8,0.456,5.9,-6.859445324,1.07,45.5,41.48,4.12,-2.79,30.3,0,2.32,2.32,96,21,521.5,16.3,-1.2,D,1677.6,8,1.336,2,0.42,128,139.71,-80.37380143,25.75841401,0,0,6,N,5.3158,83,83,11,250,250,138.7094,0,9999.99,2.36,2.487,2,9,28.8,0,28.70000076,0.92,1507.02686,9/25/20,10:13:14,28.41,1.821,0.92,0.973,8.49,-89,-2.8,-2.7,343,93.7,7.24,13.1,
25.75842459,-80.37380742,33:03.9,9/25/20,8,0.316,5.9,-6.859445324,1.07,47.4,43.38,4.22,-3.09,30.3,0,2.31,2.31,96,21,521.5,16.3,-1.2,D,1677.6,8,1.322,2,0.39,128,153,-80.37380143,25.75841401,0,0,6,N,5.3158,82,82,11,250,250,152.0997,0,9999.99,2.35,2.477,2,9,28.8,0,28.79999924,0.92,1507.26498,9/25/20,10:13:15,28.42,1.821,0.92,0.942,8.46,-87.3,1.1,-3,1785,93.6,7.24,13.1,
25.75842646,-80.37380514,33:04.9,9/25/20,8,0.361,5.9,-6.859445324,1.07,49.6,45.58,4.22,-2.59,30.3,0,2.31,2.31,96,21,521.5,16.3,-1.2,D,1677.6,8,1.434,2,0.36,128,164.97,-80.37380143,25.75841401,0,0,6,N,5.3158,82,82,11,250,250,164.26,0,9999.99,2.35,2.477,2,9,28.8,0,28.79999924,0.92,1507.26497,9/25/20,10:13:17,28.43,1.82,0.92,0.971,8.49,-89.1,-1.7,-1.9,614,93.6,7.24,13.1,
25.75842778,-80.37380255,33:05.9,9/25/20,8,0.31,5.9,-6.859445324,1.07,52.4,48.37,4.43,-2.44,30.3,0,2.31,2.31,96,21,521.5,16.3,-1.2,D,1677.6,8,1.537,2,0.33,128,175.81,-80.37380143,25.75841401,0,0,6,N,5.3158,84,84,11,250,250,175.2635,0,9999.99,2.35,2.477,2,9,28.8,0,28.79999924,0.92,1507.26497,9/25/20,10:13:17,28.43,1.82,0.92,0.971,8.49,-89.1,-1.7,-1.9,614,93.6,7.24,13.1,
25.75842868,-80.37380055,33:06.9,9/25/20,8,0.219,5.9,-6.859445324,1.07,53.8,49.77,4.43,-2.97,30.2,0,2.31,2.31,96,21,521.5,16.3,-1.2,D,1680.1,8,1.636,2,0.31,128,183.1,-80.37380143,25.75841401,0,0,6,N,5.3158,84,84,11,250,250,182.6327,0,9999.99,2.35,2.477,2,9,28.8,0,28.79999924,0.92,1507.265,9/25/20,10:13:18,28.44,1.819,0.92,0.957,8.48,-88.1,0.5,-5.5,734,93.5,7.23,13.1,
25.75842958,-80.37379892,33:07.9,9/25/20,8,0.231,5.9,-6.859445324,1.07,56.7,52.64,4.43,-2.56,30.3,0,2.3,2.3,96,21,521.5,16.3,-1.2,D,1680.1,8,1.751,2,0.3,128,188.27,-80.37380143,25.75841401,0,0,6,N,5.3158,84,84,11,250,250,187.8786,0,9999.99,2.34,2.467,2,9,28.8,0,28.79999924,0.92,1507.26505,9/25/20,10:13:20,28.45,1.819,0.92,0.959,8.49,-88.6,-0.6,-5.1,270,93.5,7.22,13,
25.75843018,-80.37379729,33:09.0,9/25/20,8,0.255,5.9,-6.859445324,1.07,58,53.92,4.43,-3.1,30.3,0,2.3,2.3,96,21,521.5,16.3,-1.2,D,1680.1,8,1.848,2,0.27,128,192.99,-80.37380143,25.75841401,0,0,6,N,5.3158,84,84,11,250,250,192.6715,0,9999.99,2.34,2.467,2,9,28.8,0,28.79999924,0.92,1507.26505,9/25/20,10:13:20,28.45,1.819,0.92,0.959,8.49,-88.6,-0.6,-5.1,270,93.5,7.22,13,
25.7584311,-80.37379564,33:10.0,9/25/20,8,0.291,5.9,-6.859445324,1.07,60,55.9,4.31,-2.88,30.3,0,2.3,2.3,96,21,521.5,16.3,-1.2,D,1680.1,8,1.987,2,0.27,128,196.98,-80.37380143,25.75841401,0,0,6,N,5.3158,83,83,11,250,250,196.6839,0,9999.99,2.34,2.467,2,9,28.8,0,28.79999924,0.91,1507.2546,9/25/20,10:13:21,28.45,1.818,0.91,0.965,8.49,-88.8,0,-4.7,1374,93.4,7.21,13.2,
25.75843193,-80.37379386,33:11.0,9/25/20,9,0.3,5.9,-6.859445324,1.07,61.9,57.76,4.41,-2.89,30.3,0,2.3,2.3,96,21,521.5,16.3,-1.2,D,1680.1,8,2.133,2,0.25,128,200.82,-80.37380143,25.75841401,0,0,6,N,5.3158,83,83,11,250,250,200.5705,0,9999.99,2.34,2.467,2,9,28.8,0,28.79999924,0.91,1507.25456,9/25/20,10:13:23,28.45,1.817,0.91,0.948,8.46,-87.1,-0.3,1.6,1194,93.4,7.22,13.2,
25.75843266,-80.37379269,33:12.0,9/25/20,9,0.151,5.9,-6.859445324,1.07,64,59.82,4.41,-2.47,30.3,0,2.3,2.3,96,21,521.5,16.3,-1.2,D,1680.1,8,2.251,2,0.24,128,202.88,-80.37380143,25.75841401,0,0,6,N,5.3158,83,83,11,250,250,202.6665,0,9999.99,2.34,2.467,2,9,28.8,0,28.79999924,0.91,1507.25456,9/25/20,10:13:23,28.45,1.817,0.91,0.948,8.46,-87.1,-0.3,1.6,1194,93.4,7.22,13.2,
25.75843398,-80.37379063,33:13.0,9/25/20,8,0.191,5.9,-6.859445324,1.07,65.6,61.39,4.41,-2.68,30.4,0,2.28,2.28,96,21,521.5,16.3,-1.2,D,1680.1,8,2.47,2,0.22,128,205.96,-80.37380143,25.75841401,0,0,6,N,5.3158,83,83,11,250,250,205.7805,0,9999.99,2.32,2.447,2,9,28.8,0,28.79999924,0.91,1507.25457,9/25/20,10:13:24,28.45,1.817,0.91,0.948,8.49,-88.6,-1,-2,-1217,93.4,7.22,13.2,
25.75843407,-80.37378995,33:14.0,9/25/20,8,0.059,5.9,-6.859445324,1.07,67.3,63.04,4.54,-2.7,30.3,0,2.29,2.29,96,21,521.4,16.3,-1.2,D,1678.7,8,2.51,2,0.21,128,207.28,-80.37380143,25.75841401,0,0,6,N,5.3158,84,84,11,250,250,207.1167,0,9999.99,2.33,2.457,2,9,28.8,0,28.79999924,0.91,1507.25457,9/25/20,10:13:25,28.45,1.816,0.91,0.933,8.5,-89.3,-2.6,-5.7,2377,93.4,7.22,13.4,
25.75843487,-80.37378898,33:15.0,9/25/20,9,0.221,5.9,-6.859445324,1.07,68.6,64.31,4.41,-2.91,30.4,0,2.28,2.28,96,21,521.4,16.3,-1.2,D,1678.7,8,2.634,2,0.2,128,208.26,-80.37380143,25.75841401,0,0,6,N,5.3158,83,83,11,250,250,208.0895,0,9999.99,2.32,2.447,2,9,28.8,0,28.79999924,0.91,1507.2546,9/25/20,10:13:27,28.46,1.816,0.91,0.927,8.45,-86.4,-0.7,-2.5,-2113,93.4,7.21,13.4,
25.758436,-80.37378785,33:16.0,9/25/20,9,0.167,5.9,-6.859445324,1.07,70.5,66.15,4.26,-2.63,30.4,0,2.29,2.29,96,21,521.4,16.3,-1.2,D,1678.7,8,2.799,2,0.2,128,209.07,-80.37380143,25.75841401,0,0,6,N,5.3158,83,83,11,250,250,208.9358,0,9999.99,2.33,2.457,2,9,28.8,0,28.79999924,0.91,1507.2546,9/25/20,10:13:27,28.46,1.816,0.91,0.927,8.45,-86.4,-0.7,-2.5,-2113,93.4,7.21,13.4,
25.75843732,-80.37378669,33:17.0,9/25/20,9,0.18,5.9,-6.859445324,1.07,71.6,67.22,4.36,-2.86,30.4,0,2.3,2.3,96,21,521.4,16.3,-1.2,D,1677.4,8,2.983,2,0.19,128,209.66,-80.37380143,25.75841401,0,0,6,N,5.3158,83,83,11,250,250,209.5369,0,9999.99,2.34,2.467,2,9,28.8,0,28.79999924,0.91,1507.25455,9/25/20,10:13:28,28.46,1.816,0.91,0.941,8.49,-88.6,-1.2,-0.8,-593,93.3,7.21,13.2,
25.75843812,-80.37378556,33:18.0,9/25/20,9,0.226,5.9,-6.859445324,1.07,73.3,68.86,4.36,-2.64,30.4,0,2.29,2.29,96,21,521.4,16.3,-1.2,D,1677.4,8,3.117,2,0.18,128,210.66,-80.37380143,25.75841401,0,0,6,N,5.3158,83,83,11,250,250,210.547,0,9999.99,2.33,2.457,2,9,28.8,0,28.79999924,0.91,1507.25454,9/25/20,10:13:30,28.45,1.816,0.91,0.946,8.48,-88.1,-1,-6.8,283,93.3,7.21,13,
25.75843893,-80.3737849,33:19.0,9/25/20,9,0.148,5.9,-6.859445324,1.07,74.5,70.02,4.36,-2.81,30.4,0,2.28,2.28,96,21,521.4,16.3,-1.2,D,1677.4,8,3.228,2,0.18,128,210.86,-80.37380143,25.75841401,0,0,6,N,5.3158,83,83,11,250,250,210.7489,0,9999.99,2.32,2.447,2,9,28.8,0,28.79999924,0.91,1507.25454,9/25/20,10:13:30,28.45,1.816,0.91,0.946,8.48,-88.1,-1,-6.8,283,93.3,7.21,13,
25.75843957,-80.37378409,33:20.0,9/25/20,9,0.202,5.9,-6.859445324,1.07,75.8,71.27,4.36,-2.49,30.3,0,2.28,2.28,96,21,521.4,16.3,-1.2,D,1677.4,8,3.33,2,0.17,128,211.43,-80.37380143,25.75841401,0,0,6,N,5.3158,83,83,11,250,250,211.3063,0,9999.99,2.32,2.447,2,9,28.8,0,28.79999924,0.91,1507.25454,9/25/20,10:13:31,28.46,1.815,0.91,0.928,8.47,-87.6,-1.4,-5,218,93.3,7.21,13.2,
25.75844021,-80.3737833,33:21.0,9/25/20,9,0.103,5.9,-6.859445324,1.07,76.7,72.13,4.47,-2.62,30.3,0,2.29,2.29,96,21,521.4,16.3,-1.2,D,1679.9,8,3.432,2,0.16,128,211.94,-80.37380143,25.75841401,0,0,6,N,5.3158,84,84,11,250,250,211.8399,0,9999.99,2.33,2.457,2,9,28.8,0,28.79999924,0.91,1507.25455,9/25/20,10:13:33,28.46,1.814,0.91,0.948,8.49,-88.6,-1,-0.7,815,93.2,7.21,13.1,
25.75844085,-80.37378248,33:22.0,9/25/20,9,0.16,5.9,-6.859445324,1.07,77.9,73.28,4.35,-2.85,30.3,0,2.3,2.3,96,21,521.4,16.3,-1.2,D,1679.9,8,3.538,2,0.16,128,212.45,-80.37380143,25.75841401,0,0,6,N,5.3158,83,83,11,250,250,212.3597,0,9999.99,2.34,2.467,2,9,28.8,0,28.79999924,0.91,1507.25455,9/25/20,10:13:33,28.46,1.814,0.91,0.948,8.49,-88.6,-1,-0.7,815,93.2,7.21,13.1,
25.75844101,-80.37378159,33:23.0,9/25/20,9,0.158,5.9,-6.859445324,1.07,79,74.34,4.35,-2.84,30.3,0,2.29,2.29,96,21,521.4,16.3,-1.2,D,1679.9,8,3.6,2,0.15,128,213.49,-80.37380143,25.75841401,0,0,6,N,5.3158,83,83,11,250,250,213.4019,0,9999.99,2.33,2.457,2,9,28.8,0,28.79999924,0.91,1507.25459,9/25/20,10:13:34,28.46,1.814,0.91,0.944,8.51,-89.8,-1.1,-4.9,1062,93.3,7.21,13.1,
25.7584415,-80.37378076,33:24.0,9/25/20,9,0.223,5.9,-6.859445324,1.07,80,75.29,4.35,-2.67,30.3,0,2.29,2.29,96,21,521.3,16.3,-1.2,D,1677.3,8,3.693,2,0.15,128,214.11,-80.37380143,25.75841401,0,0,6,N,5.3158,83,83,11,250,250,214.0192,0,9999.99,2.33,2.457,2,9,28.8,0,28.79999924,0.91,1507.25454,9/25/20,10:13:36,28.46,1.813,0.91,0.929,8.44,-85.8,-2.4,-7,2681,93.3,7.21,13.4,
25.75844183,-80.37377977,33:25.1,9/25/20,9,0.137,5.9,-6.859445324,1.07,81,76.25,4.33,-2.91,30.3,0,2.29,2.29,96,21,521.3,16.3,-1.2,D,1677.3,8,3.778,2,0.14,128,215.04,-80.37380143,25.75841401,0,0,6,N,5.3158,83,83,11,250,250,214.9566,0,9999.99,2.33,2.457,2,9,28.8,0,28.79999924,0.91,1507.25454,9/25/20,10:13:36,28.46,1.813,0.91,0.929,8.44,-85.8,-2.4,-7,2681,93.3,7.21,13.4,
25.75844198,-80.37377896,33:26.1,9/25/20,9,0.102,5.9,-6.859445324,1.07,82.1,77.3,4.5,-2.5,30.4,0,2.29,2.29,96,21,521.3,16.3,-1.2,D,1677.3,8,3.839,2,0.14,128,215.88,-80.37380143,25.75841401,0,0,6,N,5.3158,84,84,11,250,250,215.8053,0,9999.99,2.33,2.457,2,9,28.8,0,28.79999924,0.91,1507.25459,9/25/20,10:13:37,28.46,1.814,0.91,0.939,8.48,-88.4,-2.4,-3.2,855,93.3,7.21,13.3,
25.75844233,-80.37377817,33:27.1,9/25/20,9,0.155,5.9,-6.859445324,1.07,83,78.15,4.4,-3.01,30.4,0,2.29,2.29,96,21,521.3,16.3,-1.2,D,1677.3,8,3.89,2,0.14,128,216.53,-80.37380143,25.75841401,0,0,6,N,5.3158,83,83,11,250,250,216.4499,0,9999.99,2.33,2.457,2,9,28.8,0,28.79999924,0.91,1507.2546,9/25/20,10:13:39,28.46,1.812,0.91,0.919,8.47,-87.9,-0.8,-0.5,-2,93.2,7.2,13.3,
25.75844244,-80.37377742,33:28.1,9/25/20,9,0.155,5.9,-6.859445324,1.07,83.9,79.01,4.4,-2.99,30.3,0,2.29,2.29,96,21,521.3,16.3,-1.2,D,1677.3,8,3.973,2,0.14,128,217.26,-80.37380143,25.75841401,0,0,6,N,5.3158,83,83,11,250,250,217.1816,0,9999.99,2.33,2.457,2,9,28.8,0,28.79999924,0.91,1507.2546,9/25/20,10:13:39,28.46,1.812,0.91,0.919,8.47,-87.9,-0.8,-0.5,-2,93.2,7.2,13.3,
25.75844284,-80.37377676,33:29.1,9/25/20,9,0.085,5.9,-6.859445324,1.07,84.8,79.86,4.4,-2.76,30.4,0,2.3,2.3,96,21,521.3,16.3,-1.2,D,1677.3,8,4.048,2,0.13,128,217.62,-80.37380143,25.75841401,0,0,6,N,5.3158,83,83,11,250,250,217.7099,0,9999.99,2.34,2.467,2,9,28.8,0,28.79999924,0.91,1507.25455,9/25/20,10:13:40,28.46,1.812,0.91,0.937,8.45,-86.5,-0.9,-9.1,-1292,93.3,7.21,13.3,
25.758443,-80.373776,33:30.1,9/25/20,9,0.101,5.9,-6.859445324,1.07,85.6,80.62,4.4,-2.64,30.3,0,2.29,2.29,96,21,521.3,16.3,-1.2,D,1677.3,8,4.095,2,0.13,128,218.24,-80.37380143,25.75841401,0,0,6,N,5.3158,83,83,11,250,250,218.1774,0,9999.99,2.33,2.457,2,9,28.8,0,28.79999924,0.91,1507.25455,9/25/20,10:13:42,28.46,1.811,0.91,0.936,8.49,-88.6,-1.3,-5.5,1004,93.2,7.2,13.2,
25.75844333,-80.37377517,33:31.1,9/25/20,9,0.135,5.9,-6.859445324,1.07,86.5,81.47,4.4,-2.95,30.3,0,2.29,2.29,96,21,521.3,16.3,-1.2,D,1681,8,4.154,2,0.12,128,218.9,-80.37380143,25.75841401,0,0,6,N,5.3158,83,83,11,250,250,218.8363,0,9999.99,2.33,2.457,2,9,28.8,0,28.79999924,0.91,1507.25455,9/25/20,10:13:42,28.46,1.811,0.91,0.936,8.49,-88.6,-1.3,-5.5,1004,93.2,7.2,13.2,
25.75844367,-80.37377427,33:32.1,9/25/20,9,0.146,5.9,-6.859445324,1.07,87.1,82.04,4.4,-2.77,30.3,0,2.31,2.31,96,21,521.3,16.3,-1.2,D,1681,8,4.276,2,0.12,128,219.51,-80.37380143,25.75841401,0,0,6,N,5.3158,83,83,11,250,250,219.4005,0,9999.99,2.35,2.477,2,9,28.8,0,28.79999924,0.91,1507.25455,9/25/20,10:13:43,28.47,1.811,0.91,0.928,8.47,-87.9,-0.7,-2,-1331,93.2,7.2,13.4,
25.758444,-80.37377333,33:33.1,9/25/20,8,0.139,5.9,-6.859445324,1.07,88.1,82.99,4.4,-2.63,30.3,0,2.29,2.29,96,21,521.3,16.3,-1.2,D,1681,8,4.319,2,0.12,128,220.05,-80.37380143,25.75841401,0,0,6,N,5.3158,83,83,11,250,250,219.995,0,9999.99,2.33,2.457,2,9,28.8,0,28.79999924,0.91,1507.25455,9/25/20,10:13:45,28.47,1.813,0.91,0.923,8.46,-87.1,-1.2,-3.5,-2512,93.2,7.2,13.3,
25.758444,-80.37377267,33:34.1,9/25/20,8,0.114,5.9,-6.859445324,1.07,88.8,83.65,4.4,-2.73,30.4,0,2.3,2.3,96,21,521.3,16.3,-1.2,D,1681,8,4.407,2,0.11,128,220.68,-80.37380143,25.75841401,0,0,6,N,5.3158,83,83,11,250,250,220.6281,0,9999.99,2.34,2.467,2,9,28.9,0,28.79999924,0.91,1507.25455,9/25/20,10:13:45,28.47,1.813,0.91,0.923,8.46,-87.1,-1.2,-3.5,-2512,93.2,7.2,13.3,
25.758444,-80.37377183,33:35.1,9/25/20,8,0.123,5.9,-6.859445324,1.07,89.5,84.31,4.4,-2.92,30.3,0,2.31,2.31,96,21,521.3,16.3,-1.2,D,1678.4,8,4.449,2,0.11,128,221.33,-80.37380143,25.75841401,0,0,6,N,5.3158,83,83,11,250,250,221.272,0,9999.99,2.35,2.477,2,9,28.8,0,28.89999962,0.91,1507.49242,9/25/20,10:13:46,28.47,1.811,0.91,0.934,8.48,-88.4,-0.3,-4.2,-266,93.2,7.2,13.1,
25.75844417,-80.37377117,33:36.1,9/25/20,8,0.115,5.9,-6.859445324,1.07,90,84.78,4.4,-2.91,30.4,0,2.29,2.29,96,21,521.3,16.3,-1.2,D,1678.4,8,4.503,2,0.11,128,222.11,-80.37380143,25.75841401,0,0,6,N,5.3158,83,83,11,250,250,222.0548,0,9999.99,2.33,2.457,2,9,28.8,0,28.79999924,0.91,1507.25455,9/25/20,10:13:48,28.47,1.813,0.91,0.917,8.47,-87.6,-2.3,-6.2,547,93.3,7.2,13.2,
25.75844433,-80.3737705,33:37.1,9/25/20,8,0.113,5.9,-6.859445324,1.07,90.8,85.53,4.4,-3.13,30.4,0,2.3,2.3,96,21,521.3,16.3,-1.2,D,1678.4,8,4.561,2,0.11,128,222.57,-80.37380143,25.75841401,0,0,6,N,5.3158,83,83,11,250,250,222.5211,0,9999.99,2.34,2.467,2,9,28.9,0,28.89999962,0.91,1507.49242,9/25/20,10:13:49,28.48,1.812,0.91,0.925,8.43,-85.3,-0.2,-3.2,900,93.3,7.2,13.3,
