Latitude,Longitude,Time,Date,Number of Sats,GPS Speed (Kn),GPS True Heading,GPS Magnetic Variation,HDOP,C Magnetic Heading,C True Heading,Pitch Angle,Roll Angle,C Inside Temp (c),DFS Depth (m),DTB Height (m),Total Water Column (m),Batt Percent,Power Watts,Watt-Hours,Batt Volts,Batt Ampers,Batt State,Time to Empty,Current Step,Dist To Next (m),Next Speed (kn),Vehicle Speed (kn),Motor Speed CMD,Next Heading,Next Long,Next Lat,Next Depth (m),Depth Goal (m),Vehicle State,Error State,Distance to Track (m),Fin Pitch R,Fin Pitch L,Pitch Goal,Fin Yaw T,Fin Yaw B,Yaw Goal,Fin Roll,DVL-Depth (m),DVL -Altitude (m),DVL -Water Column (m),DVL-FixType,DVL-FixQuality,DVL-Temperature,Conductivity (mmhos/cm),Temperature (c),Salinity (ppt),Sound Speed (m/s),Date m/d/y   ,Time hh:mm:ss,Temp C,SpCond mS/cm,Sal ppt,Depth feet,pH,pH mV,Turbid+ NTU,Chl ug/L,BGA-PC cells/mL,ODOsat %,ODO mg/L,Battery volts,ROSEM Command Type
25.7581675,-80.37363983,22:04.5,9/25/20,8,0.085,84.1,-6.859549699,1.21,89.2,84.02,2.01,-3.13,37.7,0,2.32,2.32,90,20,496,16,-1.2,D,1593.1,0,29.41,2,0.05,128,255.69,-80.37392439,25.75810214,0,0,1,N,7.49708,69,69,11,5,5,274.7305,0,9999.99,2.34,2.467,2,9,31,0,31,0.85,1512.26286,9/25/20,12:02:16,28.43,1.699,0.85,1.236,7.72,-42.6,5.2,-6.6,-4339,86.4,6.68,13.1,
25.75816733,-80.37363983,22:05.6,9/25/20,8,0.126,84.1,-6.859549699,1.21,88.1,82.99,2.16,-3.31,37.7,0,2.27,2.27,90,20,496,16,-1.2,D,1593.1,0,29.406,2,0.01,174,255.73,-80.37392439,25.75810214,0,0,1,N,7.49708,70,70,11,250,250,255.7278,0,9999.99,2.29,2.417,2,9,31,0,31,0.85,1512.26286,9/25/20,12:02:17,28.41,1.7,0.85,1.234,7.71,-42.5,5.5,-4.7,-1630,86.6,6.7,13.2,
25.75816749,-80.37364016,22:06.6,9/25/20,8,0.102,84.1,-6.859549699,1.21,85.7,80.72,3.69,1.4,37.7,0,2.28,2.28,90,20,496,16,-1.2,D,1593.1,0,29.378,2,0.01,174,255.68,-80.37392439,25.75810214,0,0,1,N,7.49708,78,78,11,250,250,255.6776,0,9999.99,2.3,2.427,2,9,31,0,31,0.85,1512.26286,9/25/20,12:02:19,28.41,1.699,0.85,1.232,7.72,-42.7,5.2,-3.2,-6016,86.9,6.72,13.1,
25.75816784,-80.37363823,22:07.6,9/25/20,8,0.497,84.1,-6.859549699,1.21,86,81,3.42,2.13,37.7,0,2.27,2.27,90,20,496,16,-1.2,D,1593.1,0,29.575,2,0.08,174,255.7,-80.37392439,25.75810214,0,0,1,N,7.49708,78,78,11,250,250,255.6975,0,9999.99,2.3,2.427,2,9,31,0,31,0.85,1512.26286,9/25/20,12:02:19,28.41,1.699,0.85,1.232,7.72,-42.7,5.2,-3.2,-6016,86.9,6.72,13.1,
25.75816919,-80.37363479,22:08.6,9/25/20,8,0.627,84.1,-6.859549699,1.08,92.1,86.76,2.52,9.2,37.7,0,2.34,2.34,90,54,495.9,16,-3.4,D,605.6,5,2.247,2,0.32,174,132.88,-80.37361835,25.75815544,0,0,1,N,1.527549,72,72,11,183,183,100.8168,0,9999.99,2.37,2.497,2,9,31.1,0,31.10000038,0.85,1512.48534,9/25/20,12:02:20,28.42,1.699,0.85,1.223,7.71,-42.2,5.6,-4.3,-3161,87,6.73,13,
25.75817112,-80.37363205,22:09.6,9/25/20,8,0.509,84.1,-6.859549699,1.08,92.9,87.51,5.62,3.41,37.7,0,2.34,2.34,90,54,495.9,16,-3.4,D,605.6,6,8.755,2,0.48,174,100.36,-80.37354605,25.75815696,0,0,1,N,1.77824,92,92,11,176,176,99.48387,0,9999.99,2.37,2.501306,2,9,31.1,0,31.10000038,0.85,1512.4858,9/25/20,12:02:22,28.49,1.696,0.85,1.041,7.74,-44.3,13.2,-4.9,-3612,87.8,6.78,12.9,
25.75817274,-80.37362888,22:10.6,9/25/20,8,0.739,84.1,-6.859549699,1.08,98.2,92.47,3.74,0.58,37.7,0.01,2.3,2.31,90,54,495.9,16,-3.4,D,605.6,6,8.479,2,0.49,174,101.94,-80.37354605,25.75815696,0,0,1,N,1.953845,79,79,11,161,161,100.9196,0,9999.99,2.35,2.477,2,9,31,0,31,0.85,1512.26401,9/25/20,12:02:23,28.64,1.692,0.85,1.091,7.76,-45.4,322,-6.4,-3651,88.1,6.79,13,
25.75817219,-80.37362573,22:11.6,9/25/20,8,0.569,84.1,-6.859549699,1.21,99.8,93.96,4.25,-0.71,37.7,0,2.32,2.32,90,54,495.9,16,-3.4,D,605.6,6,8.157,2,0.57,174,101.98,-80.37354605,25.75815696,0,0,1,N,1.885502,83,83,11,155,155,100.9002,0,9999.99,2.35,2.477,2,9,31.1,0,31,0.85,1512.26401,9/25/20,12:02:23,28.64,1.692,0.85,1.091,7.76,-45.4,322,-6.4,-3651,88.1,6.79,13,
25.75817266,-80.37362446,22:12.6,9/25/20,8,0.248,84.1,-6.859549699,1.08,100.3,94.43,6.15,-0.31,37.6,0,2.27,2.27,90,51,495.9,16,-3.2,D,643,6,8.044,2,0.51,174,102.54,-80.37354605,25.75815696,0,0,1,N,1.936671,90,90,11,153,153,101.394,0,9999.99,2.31,2.437,2,9,31.1,0,31.10000038,0.85,1512.48574,9/25/20,12:02:24,28.75,1.688,0.85,1.038,7.77,-46.2,15.1,-6.1,-3105,88.6,6.81,13.2,
25.75817318,-80.37362348,22:13.6,9/25/20,8,0.179,84.1,-6.859549699,1.08,101.7,95.73,5.59,0.23,37.6,0.01,2.31,2.32,90,51,495.9,16,-3.2,D,643,6,7.961,2,0.37,174,103.09,-80.37354605,25.75815696,0,0,1,N,1.990106,91,91,11,152,152,101.8898,0,9999.99,2.36,2.487,2,9,31.1,0,31.10000038,0.84,1512.47677,9/25/20,12:02:26,28.91,1.683,0.84,1.058,7.77,-46.3,31.4,-3.8,-2733,89.4,6.85,13,
25.75817419,-80.37362273,22:14.6,9/25/20,8,0.11,84.1,-6.859549699,1.08,102,96.01,6.12,1.65,37.6,0.03,2.35,2.38,90,51,495.9,16,-3.2,D,643,6,7.915,2,0.31,174,104.01,-80.37354605,25.75815696,0,0,1,N,2.099366,94,94,11,154,154,102.7173,0,9999.99,2.4,2.527,0,0,31.1,0,31.10000038,0.84,1512.47677,9/25/20,12:02:26,28.91,1.683,0.84,1.058,7.77,-46.3,31.4,-3.8,-2733,89.4,6.85,13,
25.75817486,-80.37362167,22:15.6,9/25/20,8,0.086,84.1,-6.859549699,1.21,102.1,96.11,5.69,0.52,37.6,0.05,2.29,2.35,90,51,495.9,16,-3.1,D,648,6,7.831,2,0.2,174,104.73,-80.37354605,25.75815696,0,0,1,N,2.165964,90,90,11,156,156,103.3239,0,9999.99,2.34,2.467,2,9,31.1,0,31.10000038,0.84,1512.48379,9/25/20,12:02:27,28.92,1.683,0.84,1.051,7.78,-46.4,41.5,-4.9,1117,89.9,6.89,13.1,
25.75817501,-80.37362097,22:16.6,9/25/20,8,0.103,84.1,-6.859549699,1.21,102.2,96.2,6,-0.24,37.6,0.03,2.3,2.33,90,51,495.9,16,-3.1,D,648,6,7.767,2,0.15,179,104.98,-80.37354605,25.75815696,0,0,1,N,2.181528,94,94,11,158,158,103.5495,0,9999.99,2.35,2.477,0,0,31.1,0,31.10000038,0.84,1512.48258,9/25/20,12:02:29,28.93,1.682,0.84,1.046,7.78,-46.8,54.5,-5.2,-2261,90.6,6.95,13.1,
25.75817551,-80.37362118,22:17.6,9/25/20,8,0.104,84.1,-6.859549699,1.21,102.2,96.2,6.06,0.69,37.6,0,2.3,2.31,90,51,495.9,16,-3.1,D,648,6,7.802,2,0.12,184,105.33,-80.37354605,25.75815696,0,0,1,N,2.237189,94,94,11,158,158,103.8694,0,9999.99,2.36,2.487,2,9,31.1,0,31.10000038,0.84,1512.48258,9/25/20,12:02:29,28.93,1.682,0.84,1.046,7.78,-46.8,54.5,-5.2,-2261,90.6,6.95,13.1,
25.75817584,-80.37362059,22:18.6,9/25/20,8,0.201,84.1,-6.859549699,1.21,102,96.01,6.36,0.75,37.6,0,2.32,2.32,90,51,495.9,16,-3.1,D,648,6,7.755,2,0.14,188,105.7,-80.37354605,25.75815696,0,0,1,N,2.272657,95,95,11,160,160,104.1979,0,9999.99,2.37,2.497,2,9,31.1,0,31.10000038,0.84,1512.47512,9/25/20,12:02:30,28.94,1.682,0.84,1.042,7.79,-47.1,56.8,-5.7,-1734,90.9,6.97,12.8,
25.75817617,-80.37361954,22:19.6,9/25/20,8,0.277,84.1,-6.859549699,1.21,103.3,97.22,5.94,0.37,37.6,0.02,2.39,2.41,90,69,495.8,15.9,-4.3,D,476.9,6,7.663,2,0.18,193,106.18,-80.37354605,25.75815696,0,0,1,N,2.307215,94,94,11,158,158,104.6307,0,9999.99,2.44,2.567,2,9,31.1,0,31.10000038,0.84,1512.47735,9/25/20,12:02:32,28.95,1.682,0.84,1.042,7.8,-47.7,17.3,-2.1,-1229,91.4,7,13.2,
25.75817621,-80.37361773,22:20.6,9/25/20,8,0.359,84.1,-6.859549699,1.21,104.5,98.34,5.63,1.01,37.7,0.02,2.45,2.47,90,69,495.8,15.9,-4.3,D,476.9,6,7.49,2,0.23,193,106.6,-80.37354605,25.75815696,0,0,1,N,2.306084,91,91,11,153,153,104.7515,0,9999.99,2.51,2.637,2,9,31.1,0,31.10000038,0.84,1512.47735,9/25/20,12:02:32,28.95,1.682,0.84,1.042,7.8,-47.7,17.3,-2.1,-1229,91.4,7,13.2,
25.75817653,-80.37361615,22:21.6,9/25/20,8,0.287,84.1,-6.859549699,1.21,106.3,100.01,5.68,1.06,37.7,0,2.32,2.32,90,69,495.8,15.9,-4.3,D,476.9,6,7.349,2,0.26,198,107.22,-80.37354605,25.75815696,0,0,1,N,2.33805,91,91,11,147,147,104.9507,0,9999.99,2.37,2.497,2,9,31.1,0,31.10000038,0.84,1512.47549,9/25/20,12:02:33,28.96,1.681,0.84,1.035,7.81,-48.3,5.4,-3.9,-2672,91.6,7.02,13.1,
25.75817665,-80.37361419,22:22.6,9/25/20,8,0.344,84.1,-6.859549699,1.21,108,101.58,5.6,3.01,37.6,0.01,2.34,2.35,90,113,495.8,15.9,-7.1,D,288.4,6,7.167,2,0.28,203,107.79,-80.37354605,25.75815696,0,0,1,N,2.348732,91,91,11,141,141,105.0264,0,9999.99,2.39,2.517,2,9,31.1,0,31.10000038,0.84,1512.47646,9/25/20,12:02:35,28.99,1.68,0.84,1.035,7.82,-49.2,13.2,0.6,-3101,92,7.04,13.1,
25.75817698,-80.3736124,22:23.6,9/25/20,8,0.327,84.1,-6.859549699,1.21,109.1,102.6,5.87,4.48,37.6,0,2.44,2.44,90,113,495.8,15.9,-7.1,D,288.4,6,7.009,2,0.34,208,108.53,-80.37354605,25.75815696,0,0,1,N,2.38259,92,92,11,138,138,105.2462,0,9999.99,2.49,2.617,2,9,31.1,0,31.10000038,0.84,1512.47646,9/25/20,12:02:35,28.99,1.68,0.84,1.035,7.82,-49.2,13.2,0.6,-3101,92,7.04,13.1,
25.7581776,-80.37361103,22:24.6,9/25/20,8,0.286,84.1,-6.859549699,1.23,111.8,105.1,5.8,3.51,37.6,0.01,2.42,2.43,90,113,495.8,15.9,-7.1,D,288.4,6,6.901,2,0.37,208,109.43,-80.37354605,25.75815696,0,0,1,N,2.450511,92,92,11,132,132,105.6961,0,9999.99,2.47,2.597,2,9,31.1,0,31.10000038,0.84,1512.47593,9/25/20,12:02:36,28.99,1.68,0.84,1.034,7.83,-49.7,2.1,-7.2,-3524,92.2,7.06,13.1,
25.75817807,-80.37360947,22:25.6,9/25/20,7,0.187,84.1,-6.859549699,1.21,113.8,106.95,6.08,2.85,37.7,0.01,2.5,2.51,90,113,495.8,15.9,-7.1,D,288.4,7,11.312,2,0.32,208,101.97,-80.37349897,25.75815696,0,0,1,N,2.350785,93,93,11,99,99,99.84447,0,9999.99,2.55,2.677,2,9,31.1,0,31.10000038,0.71,1512.34262,9/25/20,12:02:38,28.96,1.421,0.71,1.021,7.85,-50.8,-5,-2.7,-1979,92.6,7.1,12.9,
25.75817778,-80.37360825,22:26.6,9/25/20,7,0.153,84.1,-6.859549699,1.21,113,106.21,7.32,6.61,37.7,0.04,2.39,2.43,90,161,495.8,15.8,-10.1,D,202.5,7,11.186,2,0.25,208,101.94,-80.37349897,25.75815696,0,0,1,N,2.317033,99,99,11,100,100,99.7895,0,9999.99,2.45,2.577,2,9,31.1,0,31.10000038,0.71,1512.34262,9/25/20,12:02:38,28.96,1.421,0.71,1.021,7.85,-50.8,-5,-2.7,-1979,92.6,7.1,12.9,
25.75817707,-80.37360709,22:27.6,9/25/20,7,0.142,84.1,-6.859549699,1.21,114.4,107.51,7.3,8,37.6,0.06,2.51,2.57,90,161,495.8,15.8,-10.1,D,202.5,7,11.057,2,0.22,207,101.67,-80.37349897,25.75815696,0,0,1,N,2.239639,100,100,11,94,94,99.54417,0,9999.99,2.57,2.697,2,9,31.1,0,31.10000038,0.69,1512.33076,9/25/20,12:02:39,28.94,1.399,0.69,1.017,7.86,-51.3,-3.9,-2.4,-1668,92.8,7.12,13.1,
25.75817692,-80.37360637,22:28.6,9/25/20,7,0.053,84.1,-6.859549699,1.21,116.7,109.64,6.43,7.59,37.7,0.04,2.38,2.42,90,161,495.8,15.8,-10.1,D,202.5,7,10.982,2,0.16,205,101.66,-80.37349897,25.75815696,0,0,1,N,2.222279,96,96,11,87,87,99.52166,0,9999.99,2.44,2.567,2,9,31.1,0,31.10000038,0.7,1512.33826,9/25/20,12:02:41,28.94,1.408,0.7,1.014,7.87,-51.8,-6.3,-1.9,-2846,93.1,7.14,13.1,
25.75817527,-80.373607,22:29.6,9/25/20,7,0.425,84.1,-6.859549699,1.21,112.7,105.94,11,36.9,37.7,0.01,2.39,2.4,90,147,495.7,15.8,-9.3,D,221.6,7,11.009,2,0.11,205,100.66,-80.37349897,25.75815696,0,0,1,N,2.038353,128,128,11,98,98,98.71085,0,9999.99,2.45,2.577,2,9,31.1,0,31.10000038,0.7,1512.33826,9/25/20,12:02:41,28.94,1.408,0.7,1.014,7.87,-51.8,-6.3,-1.9,-2846,93.1,7.14,13.1,
25.75817379,-80.37360648,22:30.6,9/25/20,8,0.432,84.1,-6.859549699,1.08,111.1,104.46,4.34,3.14,37.7,0,2.6,2.6,90,147,495.7,15.8,-9.3,D,221.6,7,10.928,2,0.3,208,99.86,-80.37349897,25.75815696,0,0,1,N,1.878956,83,83,11,101,101,98.06148,0,9999.99,2.68,2.805614,2,9,31.1,0,31.10000038,0.8,1512.43413,9/25/20,12:02:42,28.95,1.601,0.8,1.018,7.87,-51.9,-4.9,-5,-2108,93.2,7.15,12.9,
25.75816964,-80.37359669,22:31.6,9/25/20,8,1.565,118.78,-6.859549699,1.21,111.8,105.1,1.72,11.7,37.7,0,2.47,2.47,90,147,495.7,15.8,-9.3,D,221.6,7,9.887,2,0.9,208,98.2,-80.37349897,25.75815696,0,0,1,N,1.428786,67,67,11,93,93,96.57665,0,9999.99,2.49,2.617383,2,9,31.1,0,31.10000038,0.84,1512.47507,9/25/20,12:02:44,28.96,1.68,0.84,1.189,8.02,-60.9,85.6,-4.8,6066,93.4,7.16,12.9,
25.75816658,-80.37358386,22:32.6,9/25/20,8,2.306,113.23,-6.859549699,1.08,111.3,104.64,2.98,11.3,37.6,0,2.51,2.51,90,147,495.7,15.8,-9.3,D,221.6,7,8.569,2,1.42,208,97.17,-80.37349897,25.75815696,0,0,1,N,1.091681,75,75,11,91,91,95.54649,0,9999.99,2.53,2.657,2,9,31.2,0,31.10000038,0.84,1512.47507,9/25/20,12:02:44,28.96,1.68,0.84,1.189,8.02,-60.9,85.6,-4.8,6066,93.4,7.16,12.9,
25.7581615,-80.37357001,22:33.6,9/25/20,8,2.705,109.81,-6.859549699,1.21,109,102.51,4.06,13.1,37.6,0,2.44,2.44,90,122,495.7,15.8,-7.6,D,268.4,7,7.132,2,1.92,208,94.06,-80.37349897,25.75815696,0,0,1,N,0.5296233,81,81,11,88,88,93.01916,0,9999.99,2.47,2.596263,2,9,31.2,0,31.20000076,0.84,1512.69687,9/25/20,12:02:45,28.88,1.683,0.84,1.184,8.11,-66.5,112.1,-3.5,4865,93.4,7.17,13.1,
25.7581588,-80.37355477,22:34.6,9/25/20,8,2.864,108.13,-6.859549699,1.08,106.2,99.91,4.67,12.5,37.6,0,2.48,2.48,90,122,495.7,15.8,-7.6,D,268.4,7,5.592,2,2.32,208,92.09,-80.37349897,25.75815696,0,0,1,N,0.2293191,85,85,11,93,93,91.49388,0,9999.99,2.52,2.642849,2,9,31.1,0,31.10000038,0.84,1512.47507,9/25/20,12:02:47,28.79,1.686,0.84,1.102,8.21,-72.3,6,-2,5781,93.7,7.2,13.1,
25.75815518,-80.37354102,22:35.6,9/25/20,8,2.643,107.08,-6.859549699,1.21,103.4,97.31,4.62,13.8,37.6,0,2.42,2.42,90,113,495.7,15.8,-7.1,D,287.8,7,4.215,2,2.53,208,87.31,-80.37349897,25.75815696,0,0,1,N,0.1758045,85,85,11,93,93,88.74066,0,9999.99,2.46,2.591282,2,9,31.1,0,31.10000038,0.84,1512.47507,9/25/20,12:02:47,28.79,1.686,0.84,1.102,8.21,-72.3,6,-2,5781,93.7,7.2,13.1,
25.75815404,-80.37352415,22:36.6,9/25/20,8,3.231,102.94,-6.859549699,1.07,105.8,99.54,2.45,21.1,37.6,0,2.42,2.42,90,113,495.7,15.8,-7.1,D,287.8,8,6.435,2,2.7,207,161.73,-80.37350401,25.75809909,0,0,1,N,2.639603,77,77,11,250,250,166.222,0,9999.99,2.45,2.580769,2,9,31.1,0,31.10000038,0.84,1512.4752,9/25/20,12:02:48,28.89,1.682,0.84,1.133,8.24,-74.2,48,-1.9,1928,93.7,7.19,13,
25.75815145,-80.37350907,22:37.6,9/25/20,7,2.907,98.76,-6.859549699,1.23,123.5,115.93,0.86,19,37.6,0,2.2,2.2,90,113,495.7,15.8,-7.1,D,287.8,8,5.845,2,2.82,205,175.03,-80.37350401,25.75809909,0,0,1,N,1.129816,57,57,11,250,250,176.4464,0,9999.99,2.21,2.33723,2,9,31.1,0,31.10000038,0.84,1512.4751,9/25/20,12:02:49,28.86,1.685,0.84,1.13,8.27,-76,56.6,-6.6,-172,93.9,7.21,13.1,
25.75814736,-80.37349774,22:38.6,9/25/20,8,2.455,101.04,-6.859549699,1.21,136.3,127.81,5.14,14.8,37.6,0.01,2.56,2.57,90,111,495.6,15.9,-6.9,D,294.5,8,5.404,2,2.74,201,186.67,-80.37350401,25.75809909,0,0,1,N,5.99E-02,88,88,11,250,250,184.9139,0,9999.99,2.58,2.708787,2,9,31.1,0,31.10000038,0.84,1512.4755,9/25/20,12:02:50,28.98,1.68,0.84,1.212,8.29,-77.2,2.1,-7.6,-559,94.1,7.2,12.8,
25.75814087,-80.3734888,22:39.6,9/25/20,8,2.3,115.03,-6.859549699,1.21,150.9,141.56,4.59,22.4,37.6,0.04,2.31,2.34,90,111,495.6,15.9,-6.9,D,294.5,9,7.617,2,2.58,200,230.8,-80.37354773,25.75809757,0,0,1,N,4.701533,85,85,11,250,250,240.828,0,9999.99,2.35,2.479331,2,9,31.1,0,31.10000038,0.84,1512.48155,9/25/20,12:02:52,29.03,1.678,0.84,1.091,8.32,-79,-0.7,1,199,94.5,7.23,13,
25.75813246,-80.37348075,22:40.6,9/25/20,8,2.302,127.89,-6.859549699,1.21,164.2,154.36,3.59,12.2,37.6,0.05,2.38,2.43,90,111,495.6,15.9,-6.9,D,294.5,9,7.749,2,2.48,200,239.95,-80.37354773,25.75809757,0,0,1,N,3.747381,75,75,11,250,250,247.0673,0,9999.99,2.42,2.543884,2,9,31.1,0,31.10000038,0.84,1512.48155,9/25/20,12:02:52,29.03,1.678,0.84,1.091,8.32,-79,-0.7,1,199,94.5,7.23,13,
25.75812294,-80.37347567,22:41.6,9/25/20,8,2.16,140.32,-6.859549699,1.21,177.8,167.76,3.07,14.4,37.6,0.03,2.31,2.34,90,111,495.6,15.9,-6.9,D,294.5,9,7.749,2,2.39,199,248.65,-80.37354773,25.75809757,0,0,1,N,2.693111,75,75,11,250,250,253.1844,0,9999.99,2.35,2.475358,2,9,31.1,0,31.10000038,0.84,1512.48226,9/25/20,12:02:53,29.15,1.675,0.84,1.091,8.34,-80,-0.1,-2,-778,94.6,7.22,13,
25.75811334,-80.37347308,22:42.6,9/25/20,8,2.153,153.02,-6.859549699,1.21,189.7,179.76,2.42,14.1,37.6,0.02,2.27,2.29,90,95,495.5,15.9,-6,D,342.9,9,7.679,2,2.29,199,256.8,-80.37354773,25.75809757,0,0,1,N,1.611782,72,72,11,250,250,259.105,0,9999.99,2.3,2.42755,2,9,31.1,0,31.10000038,0.84,1512.47841,9/25/20,12:02:55,29.19,1.674,0.84,1.114,8.36,-81.1,-0.3,-5,-1702,94.8,7.24,13.2,
25.75810378,-80.37347335,22:43.6,9/25/20,8,2.113,165.73,-6.859549699,1.21,202.7,193.13,2.65,13.4,37.6,0,2.26,2.27,90,95,495.5,15.9,-6,D,342.9,9,7.481,2,2.27,199,264.7,-80.37354773,25.75809757,0,0,1,N,0.5267,73,73,11,250,250,264.9225,0,9999.99,2.3,2.423791,2,9,31.1,0,31.10000038,0.84,1512.47841,9/25/20,12:02:55,29.19,1.674,0.84,1.114,8.36,-81.1,-0.3,-5,-1702,94.8,7.24,13.2,
25.75809329,-80.37347738,22:44.7,9/25/20,8,2.114,181.26,-6.859549699,1.21,220.2,211.42,4.24,12.6,37.6,0,2.37,2.37,90,95,495.5,15.9,-6,D,342.9,9,7.062,2,2.21,199,273.86,-80.37354773,25.75809757,0,0,1,N,0.6308361,82,82,11,250,250,271.3389,0,9999.99,2.4,2.528383,2,9,31.1,0,31.10000038,0.84,1512.4751,9/25/20,12:02:56,29.18,1.675,0.84,1.101,8.37,-81.6,-0.7,-2.4,729,94.8,7.24,13,
25.75808601,-80.3734831,22:45.7,9/25/20,8,2.067,195.6,-6.859549699,1.21,233.8,225.75,4.14,16.6,37.6,0,2.35,2.35,90,91,495.5,15.9,-5.7,D,358.5,9,6.599,2,2.22,198,281.23,-80.37354773,25.75809757,0,0,1,N,1.444121,82,82,11,250,250,276.2735,0,9999.99,2.39,2.515263,2,9,31.1,0,31.10000038,0.85,1512.48534,9/25/20,12:02:58,28.43,1.698,0.85,1.083,8.39,-83.1,0,-1.1,-694,94.9,7.34,13,
25.75807958,-80.37349084,22:46.7,9/25/20,8,2.136,209.28,-6.859549699,1.21,249,241.73,3.73,12.6,37.6,0,2.32,2.32,90,91,495.5,15.9,-5.7,D,358.5,9,6.037,2,2.26,198,289.34,-80.37354773,25.75809757,0,0,1,N,2.164531,77,77,11,250,250,281.2773,0,9999.99,2.36,2.482994,2,9,31.1,0,31.10000038,0.86,1512.4956,9/25/20,12:02:59,28.14,1.707,0.86,1.083,8.4,-83.3,0.3,-6.1,371,94.8,7.37,13.1,
25.75807506,-80.37350124,22:47.7,9/25/20,8,2.171,221.75,-6.859549699,1.21,262.9,256.24,4.15,13.3,37.6,0,2.36,2.36,90,91,495.5,15.9,-5.7,D,358.5,9,5.287,2,2.26,198,298.26,-80.37354773,25.75809757,0,0,1,N,2.662999,82,82,11,245,245,285.7438,0,9999.99,2.4,2.522756,2,9,31.1,0,31.10000038,0.86,1512.4956,9/25/20,12:02:59,28.14,1.707,0.86,1.083,8.4,-83.3,0.3,-6.1,371,94.8,7.37,13.1,
25.75807292,-80.37351111,22:48.7,9/25/20,8,2.253,236.19,-6.859549699,1.21,276.7,270.5,4.3,11.9,37.6,0,2.3,2.3,90,91,495.5,15.9,-5.7,D,358.5,10,4.475,2,2.22,198,243.46,-80.37355109,25.75805494,0,0,1,N,3.99484,83,83,11,5,5,210.5969,0,9999.99,2.33,2.457072,2,9,31.1,0,31.10000038,0.86,1512.49619,9/25/20,12:03:00,27.99,1.712,0.86,1.08,8.41,-83.8,0.6,-5.3,34,94.8,7.39,13.2,
25.75807263,-80.37352429,22:49.7,9/25/20,8,2.374,250.47,-6.859549699,1.21,271.8,265.45,3,-3.21,37.6,0.02,2.39,2.41,90,89,495.4,15.9,-5.6,D,365.1,10,3.327,2,2.26,198,233.76,-80.37355109,25.75805494,0,0,1,N,2.681707,75,75,11,5,5,202.5924,0,9999.99,2.43,2.557,2,9,31,0,31,0.86,1512.27604,9/25/20,12:03:02,28.18,1.705,0.86,1.058,8.41,-83.9,-1.3,-4.9,-3649,94.9,7.37,13,
25.75807149,-80.37353653,22:50.8,9/25/20,8,2.382,263.89,-6.859549699,1.21,259.4,252.6,3.65,4.13,37.6,0.01,2.37,2.38,90,89,495.4,15.9,-5.6,D,365.1,11,9.071,2,2.31,197,189.25,-80.37355109,25.75799098,0,0,1,N,1.582721,76,76,11,5,5,189.1845,0,9999.99,2.4,2.527,2,9,31,0,31,0.86,1512.27604,9/25/20,12:03:02,28.18,1.705,0.86,1.058,8.41,-83.9,-1.3,-4.9,-3649,94.9,7.37,13,
25.75806787,-80.37354944,22:51.8,9/25/20,8,2.221,261.12,-6.859549699,1.21,245.6,238.17,4.11,4.97,37.6,0,2.43,2.43,90,89,495.4,15.9,-5.6,D,365.1,11,8.551,2,2.34,197,181.1,-80.37355109,25.75799098,0,0,1,N,0.2941231,80,80,11,5,5,181.7845,0,9999.99,2.46,2.587,2,9,31,0,31,0.85,1512.26346,9/25/20,12:03:03,28.53,1.694,0.85,1.117,8.41,-83.9,-1.3,-2.7,319,94.9,7.33,12.9,
25.75806329,-80.3735585,22:52.8,9/25/20,8,2.179,254.7,-6.859549699,1.21,233.3,225.22,5.05,1.33,37.5,0,2.42,2.42,90,85,495.4,15.9,-5.3,D,385.8,11,8.075,2,2.28,196,174.73,-80.37355109,25.75799098,0,0,1,N,0.6386598,87,87,11,5,5,175.9311,0,9999.99,2.46,2.587,2,9,31,0,31,0.84,1512.25263,9/25/20,12:03:05,28.82,1.685,0.84,1.068,8.42,-84.9,0.8,-4.5,-400,95.1,7.31,13.1,
25.7580578,-80.37356688,22:53.8,9/25/20,8,2.133,244.87,-6.859549699,1.21,220.8,212.05,4.56,3.55,37.6,0,2.44,2.44,90,85,495.4,15.9,-5.3,D,385.8,11,7.597,2,2.24,196,167.99,-80.37355109,25.75799098,0,0,1,N,1.51572,84,84,11,5,5,169.7748,0,9999.99,2.48,2.607,2,9,31,0,31,0.84,1512.25263,9/25/20,12:03:05,28.82,1.685,0.84,1.068,8.42,-84.9,0.8,-4.5,-400,95.1,7.31,13.1,
25.75804967,-80.37357372,22:54.8,9/25/20,8,2.167,234.85,-6.859549699,1.21,206.5,197.08,4.11,4.9,37.6,0.01,2.44,2.45,90,85,495.4,15.9,-5.3,D,385.8,11,6.909,2,2.24,196,160.85,-80.37355109,25.75799098,0,0,1,N,2.228254,84,84,11,5,5,164.438,0,9999.99,2.48,2.607,2,9,31,0,31,0.85,1512.26303,9/25/20,12:03:06,28.62,1.692,0.85,1.07,8.43,-85.4,-1,-3.1,-3646,95.4,7.35,12.9,
25.75804083,-80.37357888,22:55.8,9/25/20,8,2.148,222.56,-6.859549699,1.2,193.7,183.85,4.11,6.61,37.6,0.01,2.46,2.48,90,85,495.4,15.9,-5.3,D,385.8,11,6.203,2,2.2,196,153.34,-80.37355109,25.75799098,0,0,1,N,2.776438,82,82,11,35,35,160.8616,0,9999.99,2.5,2.627,2,9,30.9,0,30.89999962,0.85,1512.04173,9/25/20,12:03:08,28.32,1.7,0.85,1.063,8.44,-85.9,1.1,-1.6,-19,95.6,7.41,13.1,
25.7580316,-80.37358108,22:56.8,9/25/20,8,2.17,208.16,-6.859549699,1.2,182.5,172.47,4.79,10.4,37.5,0.03,2.47,2.5,90,81,495.3,15.9,-5.1,D,401.3,11,5.425,2,2.16,196,146.38,-80.37355109,25.75799098,0,0,1,N,3.02533,86,86,11,74,74,159.2858,0,9999.99,2.51,2.637,2,9,30.9,0,30.89999962,0.85,1512.04173,9/25/20,12:03:08,28.32,1.7,0.85,1.063,8.44,-85.9,1.1,-1.6,-19,95.6,7.41,13.1,
25.75802248,-80.37358196,22:57.8,9/25/20,8,2.216,195.39,-6.859549699,1.2,177.5,167.46,3.82,14.2,37.5,0.05,2.43,2.48,90,81,495.3,15.9,-5.1,D,401.3,12,3.514,2,2.17,196,184.52,-80.37358472,25.75799098,0,0,1,N,3.621417,80,80,11,250,250,245.6479,0,9999.99,2.47,2.598424,2,9,30.9,0,30.89999962,0.85,1512.04795,9/25/20,12:03:09,28.26,1.702,0.85,1.044,8.45,-86.2,-1.2,-2.1,-849,95.7,7.42,13.1,
25.75801073,-80.37358137,22:58.8,9/25/20,8,2.434,187.04,-6.859549699,1.2,186.9,176.92,2.13,17.3,37.5,0.01,2.46,2.46,90,81,495.3,15.9,-5.1,D,401.3,13,6.131,2,2.23,195,249.01,-80.37363853,25.75799098,0,0,1,N,2.357289,67,67,11,250,250,254.0759,0,9999.99,2.49,2.612763,2,9,30.9,0,30.89999962,0.85,1512.04247,9/25/20,12:03:11,28.25,1.702,0.85,1.098,8.46,-86.8,-0.3,-2.7,-1838,95.9,7.44,13.1,
25.7580017,-80.3735812,22:59.8,9/25/20,8,2.188,178.12,-6.859549699,1.2,198,188.27,3.31,13.3,37.5,0,2.52,2.52,90,78,495.2,15.9,-4.9,D,418.7,13,5.865,2,2.22,195,258.27,-80.37363853,25.75799098,0,0,1,N,1.334446,77,77,11,250,250,260.8708,0,9999.99,2.54,2.669227,2,9,30.9,0,30.89999962,0.85,1512.04247,9/25/20,12:03:11,28.25,1.702,0.85,1.098,8.46,-86.8,-0.3,-2.7,-1838,95.9,7.44,13.1,
25.75799254,-80.37358281,23:00.8,9/25/20,8,2.151,180.06,-6.859549699,1.2,211.8,202.61,3.84,12.4,37.5,0,2.46,2.46,90,78,495.2,15.9,-4.9,D,418.7,13,5.583,2,2.18,195,268.22,-80.37363853,25.75799098,0,0,1,N,0.2881414,80,80,11,250,250,267.9869,0,9999.99,2.49,2.620773,2,9,30.9,0,30.89999962,0.84,1512.02942,9/25/20,12:03:13,28.76,1.686,0.84,1.081,8.46,-87,-1.8,0,-1648,96.1,7.39,13.1,
25.75798279,-80.37358795,23:01.8,9/25/20,8,2.031,190.27,-6.859549699,1.2,227.1,218.69,3.6,12.4,37.5,0,2.46,2.46,90,78,495.2,15.9,-4.9,D,418.7,13,5.148,2,2.15,195,280.19,-80.37363853,25.75799098,0,0,1,N,0.8167358,79,79,11,250,250,275.8282,0,9999.99,2.5,2.625509,2,9,30.9,0,30.89999962,0.84,1512.02942,9/25/20,12:03:13,28.76,1.686,0.84,1.081,8.46,-87,-1.8,0,-1648,96.1,7.39,13.1,
25.75797705,-80.37359315,23:02.8,9/25/20,8,2.011,201.32,-6.859549699,1.2,240.9,233.23,3.85,11.5,37.6,0,2.49,2.49,90,78,495.2,15.9,-4.9,D,418.7,14,7.897,2,2.1,195,281.31,-80.37367048,25.75799098,0,0,1,N,1.467976,80,80,11,250,250,277.2346,0,9999.99,2.52,2.65159,2,9,30.9,0,30.89999962,0.84,1512.02942,9/25/20,12:03:14,29.24,1.671,0.84,1.049,8.46,-87.2,-1.3,-2.9,-2856,96.3,7.34,12.9,
25.75797085,-80.37360237,23:03.8,9/25/20,8,2.063,213.75,-6.859549699,1.2,256.1,249.16,4.58,8.7,37.5,0,2.51,2.51,90,80,495.2,15.9,-5,D,408.6,14,7.179,2,2.1,195,288.17,-80.37367048,25.75799098,0,0,1,N,2.191508,84,84,11,250,250,281.4854,0,9999.99,2.54,2.670844,2,9,30.9,0,30.89999962,0.83,1512.01957,9/25/20,12:03:16,29.67,1.658,0.83,1.056,8.46,-87.7,-0.8,-4.3,-2807,97,7.34,13.1,
25.75796802,-80.37361121,23:04.8,9/25/20,8,2.099,224.74,-6.859549699,1.2,271.1,264.73,4.42,9.5,37.5,0,2.43,2.43,90,80,495.2,15.9,-5,D,408.6,14,6.462,2,2.07,195,293.27,-80.37367048,25.75799098,0,0,1,N,2.539815,82,82,11,213,213,284.1914,0,9999.99,2.46,2.587,2,9,30.9,0,30.89999962,0.83,1512.01957,9/25/20,12:03:16,29.67,1.658,0.83,1.056,8.46,-87.7,-0.8,-4.3,-2807,97,7.34,13.1,
25.75796701,-80.37362195,23:05.9,9/25/20,8,2.111,239.34,-6.859549699,1.2,283.5,277.47,4.9,7.85,37.6,0,2.33,2.33,90,80,495.2,15.9,-5,D,408.6,14,5.544,2,2.08,195,298.74,-80.37367048,25.75799098,0,0,1,N,2.683777,86,86,11,162,162,286.2465,0,9999.99,2.37,2.497,2,9,31,0,31,0.83,1512.24284,9/25/20,12:03:17,29.74,1.656,0.83,1.072,8.47,-87.8,-1.7,-2.2,-1047,97.4,7.36,13.2,
25.75796825,-80.37363369,23:06.9,9/25/20,8,2.26,257.95,-6.859549699,1.2,289.6,283.69,3.99,9.4,37.5,0,2.34,2.34,90,78,495.1,15.9,-4.9,D,415.7,14,4.468,2,2.09,195,304.45,-80.37367048,25.75799098,0,0,1,N,2.562506,81,81,11,140,140,287.0064,0,9999.99,2.38,2.507,2,9,31,0,31,0.83,1512.24232,9/25/20,12:03:19,29.7,1.657,0.83,1.053,8.48,-88.4,-1.4,-4.6,-1732,97.9,7.41,13.1,
25.7579703,-80.37364484,23:07.9,9/25/20,7,2.175,269.11,-6.859549699,1.2,292.2,286.34,-4.15,26.6,37.5,0,2.44,2.44,90,78,495.1,15.9,-4.9,D,415.7,15,8.03,2,2.18,195,340.08,-80.37367216,25.75803819,0,0,1,N,2.608604,43,43,11,250,250,343.6159,0,9999.99,2.46,2.587,2,9,31,0,31,0.83,1512.24232,9/25/20,12:03:19,29.7,1.657,0.83,1.053,8.48,-88.4,-1.4,-4.6,-1732,97.9,7.41,13.1,
25.75797086,-80.37364788,23:08.9,9/25/20,8,0.774,266.71,-6.859549699,1.2,302.6,296.89,-4.58,-2.31,37.5,0,2.43,2.43,90,78,495.1,15.9,-4.9,D,415.7,15,7.872,2,1.87,195,342,-80.37367216,25.75803819,0,0,1,N,2.281906,43,43,11,250,250,345.3095,0,9999.99,2.39,2.517,2,9,31.1,0,31,0.83,1512.24232,9/25/20,12:03:20,29.67,1.658,0.83,1.109,8.48,-88.4,-1,2.6,560,98.2,7.43,13.1,
25.75796957,-80.37364781,23:09.9,9/25/20,8,0.363,266.71,-6.859549699,1.2,302.1,296.38,-8.1,-13.4,37.5,0.02,2.43,2.45,90,78,495.1,15.9,-4.9,D,415.7,15,8.011,2,1.26,197,342.28,-80.37367216,25.75803819,0,0,1,N,2.265173,43,43,11,250,250,345.5389,0,9999.99,2.39,2.517,2,9,31.1,0,31.10000038,0.83,1512.46562,9/25/20,12:03:21,29.63,1.659,0.83,1.319,8.48,-88.7,-1.9,-0.8,-961,98.4,7.45,13.1,
25.75796867,-80.37364668,23:10.9,9/25/20,8,0.09,266.71,-6.859549699,1.2,304.4,298.71,-8,-1.03,37.5,0.04,2.3,2.34,90,59,495,15.9,-3.7,D,553.7,15,8.141,2,0.74,202,341.74,-80.37367216,25.75803819,0,0,1,N,2.345199,43,43,11,250,250,345.2057,0,2.7,2.23,5.054364,2,9,31.1,0,31.10000038,0.83,1512.47225,9/25/20,12:03:23,29.55,1.661,0.83,1.765,8.49,-89.1,-1.9,-1.5,-2712,98.7,7.48,13.1,
25.75796915,-80.3736468,23:11.9,9/25/20,8,0.363,266.71,-6.859549699,1.2,309.6,303.97,-6.32,4.94,37.5,0.06,2.31,2.36,90,59,495,15.9,-3.7,D,553.7,15,8.086,2,0.45,202,341.69,-80.37367216,25.75803819,0,0,1,N,2.314675,43,43,11,250,250,345.3001,0,2.83,2.25,5.207,2,9,31.1,0,31.10000038,0.83,1512.47225,9/25/20,12:03:23,29.55,1.661,0.83,1.765,8.49,-89.1,-1.9,-1.5,-2712,98.7,7.48,13.1,
25.75797176,-80.37364956,23:12.9,9/25/20,8,0.743,266.71,-6.859549699,1.2,317.4,311.86,-4.09,21,37.5,0.12,2.08,2.21,90,59,495,15.9,-3.7,D,553.7,15,7.725,2,0.57,206,342.97,-80.37367216,25.75803819,0,0,1,N,2.052808,43,43,11,250,250,346.429,0,2.73,2.05,4.90407,2,9,31.1,0,31.10000038,0.83,1512.47811,9/25/20,12:03:24,29.41,1.667,0.83,1.899,8.49,-89.2,-2.8,-2.3,-891,99,7.52,13.1,
25.75797618,-80.37365382,23:14.0,9/25/20,6,0.844,266.71,-6.859549699,1.36,333.2,327.85,0.91,23.4,37.5,0.16,2.08,2.25,89,105,495,15.8,-6.6,D,310.2,15,7.136,2,1.04,208,345.08,-80.37367216,25.75803819,0,0,1,N,1.648352,62,62,11,209,209,348.2887,0,2.73,2.05,4.90407,2,9,31.1,0,31.10000038,0.84,1512.50244,9/25/20,12:03:26,28.99,1.679,0.84,2.358,8.5,-89.7,-0.1,-2.9,-1390,98.8,7.57,13,
25.75798205,-80.37365752,23:15.0,9/25/20,6,0.977,266.71,-6.859549699,1.36,346.5,341.37,7.34,17.6,37.5,0.13,2.01,2.14,89,105,495,15.8,-6.6,D,310.2,15,6.412,2,1.97,208,346.78,-80.37367216,25.75803819,0,0,1,N,1.299036,101,101,11,161,161,349.8954,0,9999.99,2.07,2.197382,2,9,31.1,0,31.10000038,0.85,1512.51257,9/25/20,12:03:27,28.68,1.688,0.85,2.3,8.5,-89.4,-1.2,-2.5,350,98.8,7.6,13,
25.75798852,-80.37365941,23:16.0,9/25/20,6,1.055,266.71,-6.859549699,1.36,356.7,351.78,9.9,15.9,37.5,0.06,2.05,2.12,89,105,495,15.8,-6.6,D,310.2,15,5.669,2,1.97,208,346.98,-80.37367216,25.75803819,0,0,1,N,1.113426,116,116,11,122,122,350.5608,0,9999.99,2.14,2.26817,2,9,31.1,0,31.10000038,0.85,1512.51257,9/25/20,12:03:27,28.68,1.688,0.85,2.3,8.5,-89.4,-1.2,-2.5,350,98.8,7.6,13,
25.75799528,-80.37366005,23:17.0,9/25/20,5,1.072,266.71,-6.859549699,1.36,359.6,354.74,0.28,12.3,37.5,0.01,2.36,2.37,89,105,495,15.8,-6.6,D,310.2,16,8.085,2,2.4,207,309.2,-80.37372261,25.75804123,0,0,1,N,4.83233,69,69,11,5,5,301.3449,0,9999.99,2.38,2.50405,2,9,31.1,0,31.10000038,0.85,1512.49305,9/25/20,12:03:28,28.5,1.694,0.85,1.83,8.5,-89.2,0.2,0.8,1470,98.7,7.62,13,
25.75801698,-80.37366883,23:18.0,9/25/20,7,2.534,307.23,-6.859549699,1.2,350.7,345.65,0.01,-2.4,37.5,0,2.32,2.32,89,97,494.9,15.9,-6,D,337.3,16,6.023,2,2.72,206,296.59,-80.37372261,25.75804123,0,0,1,N,2.500527,51,51,11,5,5,290.358,0,9999.99,2.32,2.447,2,9,31.1,0,31.10000038,0.85,1512.48566,9/25/20,12:03:29,28.33,1.7,0.85,1.076,8.5,-89.1,-0.7,-6.3,-912,98.6,7.64,13.1,
25.75803142,-80.37367499,23:19.0,9/25/20,7,2.68,335.68,-6.859549699,1.2,334.4,329.07,6.18,-0.77,37.5,0,2.32,2.32,89,97,494.9,15.9,-6,D,337.3,16,4.892,2,2.84,202,282.88,-80.37372261,25.75804123,0,0,1,N,0.8984458,94,94,11,5,5,280.2427,0,9999.99,2.32,2.447,2,9,31,0,31.10000038,0.86,1512.49561,9/25/20,12:03:30,28.18,1.719,0.86,1.327,8.5,-89.4,1,-3.7,-1088,98.4,7.64,12.9,
25.75803842,-80.37368587,23:20.0,9/25/20,8,2.552,334.86,-6.859549699,1.2,306.6,300.94,6.58,4.88,37.5,0,2.27,2.27,89,97,494.9,15.9,-6,D,337.3,16,3.693,2,2.68,200,274.86,-80.37372261,25.75804123,0,0,1,N,0.1335856,91,91,11,13,13,274.7846,0,9999.99,2.32,2.447,2,9,31,0,31,0.86,1512.27314,9/25/20,12:03:31,28.08,1.707,0.86,1.266,8.5,-89.5,2.9,-4.7,1335,98.3,7.65,13.2,
25.75804381,-80.37369846,23:21.0,9/25/20,8,2.495,327.97,-6.859549699,1.2,286.2,280.23,4.45,4.94,37.5,0,2.29,2.29,89,97,494.9,15.9,-6,D,337.3,17,7.016,2,2.68,198,207.7,-80.37373102,25.75798794,0,0,1,N,2.526485,84,84,11,5,5,204.568,0,9999.99,2.33,2.457,2,9,31,0,31,0.85,1512.26286,9/25/20,12:03:32,28.02,1.686,0.85,1.095,8.5,-89.2,1.8,45.4,11766,98.2,7.65,13.1,
25.75804265,-80.37371183,23:22.0,9/25/20,8,2.335,304.12,-6.859549699,1.2,269,262.56,4.82,7.42,37.5,0.03,2.28,2.31,89,80,494.9,15.9,-5,D,407.9,17,6.38,2,2.47,198,197.53,-80.37373102,25.75798794,0,0,1,N,1.197361,86,86,11,5,5,196.2905,0,9999.99,2.32,2.447,2,9,30.9,0,31,0.86,1512.27605,9/25/20,12:03:34,27.95,1.712,0.86,1.06,8.5,-89.4,0.1,-4.1,569,98,7.64,12.8,
25.75804115,-80.37372414,23:23.0,9/25/20,8,2.374,289.11,-6.859549699,1.2,253.2,246.13,4.69,9.6,37.5,0.03,2.29,2.32,89,80,494.9,15.9,-5,D,407.9,17,5.957,2,2.4,197,186.64,-80.37373102,25.75798794,0,0,1,N,3.77E-02,85,85,11,5,5,188.6479,0,9999.99,2.33,2.457,2,9,30.9,0,31,0.86,1512.27605,9/25/20,12:03:34,27.95,1.712,0.86,1.06,8.5,-89.4,0.1,-4.1,569,98,7.64,12.8,
25.75803997,-80.37373593,23:24.0,9/25/20,8,2.299,275.44,-6.859549699,1.2,234,225.96,3.04,6.82,37.4,0.02,2.29,2.31,89,80,494.9,15.9,-5,D,407.9,17,5.807,2,2.4,197,175.14,-80.37373102,25.75798794,0,0,1,N,1.203984,75,75,11,5,5,179.5257,0,9999.99,2.33,2.457,2,9,30.9,0,30.89999962,0.86,1512.05575,9/25/20,12:03:35,27.95,1.712,0.86,1.095,8.5,-89.1,-0.3,-5.1,222,97.8,7.63,13.1,
25.75803274,-80.37374603,23:25.0,9/25/20,8,2.261,258.27,-6.859549699,1.2,218.3,209.43,4.36,6.13,37.4,0.01,2.25,2.26,89,74,494.8,15.9,-4.6,D,438.8,17,5.204,2,2.32,196,163.21,-80.37373102,25.75798794,0,0,1,N,2.132051,81,81,11,5,5,173.165,0,9999.99,2.29,2.417,2,9,30.9,0,30.89999962,0.86,1512.05283,9/25/20,12:03:36,28.01,1.71,0.86,1.05,8.5,-89.2,-1.3,-1.4,63,97.9,7.62,13.1,
25.75802562,-80.37375467,23:26.0,9/25/20,8,2.234,239.01,-6.859549699,1.2,204.1,194.58,3.94,7.69,37.4,0.01,2.26,2.26,89,74,494.8,15.9,-4.6,D,438.8,17,4.815,2,2.28,196,150.52,-80.37373102,25.75798794,0,0,1,N,2.921425,81,81,11,21,21,168.0282,0,9999.99,2.29,2.417,2,9,30.8,0,30.89999962,0.85,1512.04141,9/25/20,12:03:37,28.26,1.701,0.85,1.095,8.49,-89,-0.4,-3.5,-282,97.9,7.59,13.2,
25.75801885,-80.37376111,23:27.0,9/25/20,8,2.184,222.96,-6.859549699,1.2,190.5,180.58,4.58,8.9,37.4,0.01,2.27,2.28,89,74,494.8,15.9,-4.6,D,438.8,17,4.571,2,2.26,196,138.76,-80.37373102,25.75798794,0,0,1,N,3.484997,84,84,11,63,63,164.554,0,9999.99,2.31,2.437,2,9,30.8,0,30.79999924,0.85,1511.81733,9/25/20,12:03:38,28.54,1.692,0.85,1.062,8.49,-89.1,-2.3,-0.3,236,97.8,7.55,12.9,
25.75800885,-80.37376397,23:28.0,9/25/20,8,2.316,207.45,-6.859549699,1.2,184,173.99,3.47,14.1,37.4,0,2.24,2.25,89,74,494.8,15.9,-4.6,D,438.8,18,4.129,2,2.26,195,215.98,-80.37378819,25.7579788,0,0,1,N,3.011758,80,80,11,250,250,239.306,0,9999.99,2.28,2.402021,2,9,30.8,0,30.79999924,0.84,1511.80704,9/25/20,12:03:40,28.91,1.681,0.84,1.074,8.49,-89,-1.7,-1.6,-1092,98.1,7.52,13,
25.75799819,-80.37376657,23:29.0,9/25/20,8,2.385,193.6,-6.859549699,1.2,195.9,186.11,2.09,17.9,37.4,0,2.29,2.29,89,70,494.7,15.9,-4.4,D,463.1,18,3.056,2,2.27,195,225.13,-80.37378819,25.7579788,0,0,1,N,1.883949,70,70,11,250,250,246.6793,0,9999.99,2.31,2.435175,2,9,30.8,0,30.79999924,0.84,1511.80565,9/25/20,12:03:41,29.01,1.678,0.84,1.104,8.5,-89.7,-2.7,-7,-66,98.3,7.53,13.1,
25.75798776,-80.37376926,23:30.0,9/25/20,8,2.284,187.33,-6.859549699,1.2,208.6,199.27,4.35,9,37.4,0,2.28,2.28,89,70,494.7,15.9,-4.4,D,463.1,19,8.301,2,2.24,195,267.8,-80.37385209,25.75798489,0,0,1,N,1.3121,83,83,11,250,250,268.3006,0,9999.99,2.32,2.447,2,9,30.9,0,30.79999924,0.84,1511.80565,9/25/20,12:03:41,29.01,1.678,0.84,1.104,8.5,-89.7,-2.7,-7,-66,98.3,7.53,13.1,
25.75797931,-80.37377341,23:31.0,9/25/20,8,2.201,190.48,-6.859549699,1.2,222.1,213.42,4.26,13.8,37.5,0,2.24,2.24,89,70,494.7,15.9,-4.4,D,463.1,19,7.904,2,2.24,195,274.5,-80.37385209,25.75798489,0,0,1,N,0.3395225,83,83,11,250,250,273.9712,0,9999.99,2.28,2.402861,2,9,30.9,0,30.89999962,0.84,1512.02942,9/25/20,12:03:42,29.19,1.673,0.84,1.088,8.5,-89.9,-4.4,-2.4,-234,98.6,7.52,13,
25.75797261,-80.37377977,23:32.0,9/25/20,8,2.075,197.94,-6.859549699,1.2,238.6,230.8,3.63,14.6,37.4,0,2.25,2.25,89,71,494.7,15.9,-4.4,D,459.7,19,7.37,2,2.2,195,280.68,-80.37385209,25.75798489,0,0,1,N,0.4943545,76,76,11,250,250,279.2153,0,9999.99,2.28,2.406202,2,9,30.9,0,30.89999962,0.83,1512.01914,9/25/20,12:03:43,29.34,1.667,0.83,1.047,8.5,-90,-1.6,-1.5,-1817,98.9,7.53,13.1,
25.75796632,-80.37378895,23:33.0,9/25/20,8,2.121,211.87,-6.859549699,1.2,253.4,246.34,3.76,10.1,37.4,0,2.19,2.19,89,71,494.7,15.9,-4.4,D,459.7,19,6.652,2,2.17,195,288.08,-80.37385209,25.75798489,0,0,1,N,1.328107,80,80,11,250,250,285.2895,0,9999.99,2.22,2.347188,2,9,30.9,0,30.89999962,0.83,1512.01914,9/25/20,12:03:44,29.44,1.665,0.83,1.063,8.5,-89.8,-2.3,-4.4,-453,99.3,7.54,13.2,
25.75796279,-80.37379811,23:34.0,9/25/20,8,2.16,221.91,-6.859549699,1.2,268.3,261.84,4.08,9,37.4,0,2.19,2.19,89,71,494.7,15.9,-4.4,D,459.7,19,5.939,2,2.15,195,294.45,-80.37385209,25.75798489,0,0,1,N,1.844398,81,81,11,236,236,289.0247,0,9999.99,2.23,2.357,2,9,30.9,0,30.89999962,0.83,1512.01914,9/25/20,12:03:46,29.56,1.66,0.83,1.042,8.51,-90.5,-3.3,-3.5,608,100.1,7.59,13,
25.75796134,-80.37380836,23:35.0,9/25/20,8,2.184,233.61,-6.859549699,1.2,286,280.02,4.6,11,37.4,0,2.17,2.17,89,71,494.7,15.9,-4.4,D,459.7,19,5.102,2,2.15,194,300.88,-80.37385209,25.75798489,0,0,1,N,2.14877,87,87,11,177,177,291.076,0,9999.99,2.21,2.337849,2,9,31,0,30.89999962,0.83,1512.01914,9/25/20,12:03:46,29.56,1.66,0.83,1.042,8.51,-90.5,-3.3,-3.5,608,100.1,7.59,13,
25.75796289,-80.37381958,23:36.0,9/25/20,8,2.262,255.68,-6.859549699,1.2,295.5,289.69,4.72,7.14,37.5,0,2.17,2.17,89,70,494.6,15.9,-4.4,D,466.1,19,4.072,2,2.15,194,306.92,-80.37385209,25.75798489,0,0,1,N,2.121125,85,85,11,135,135,290.8929,0,9999.99,2.21,2.337849,2,9,31,0,31,0.83,1512.24232,9/25/20,12:03:47,29.58,1.661,0.83,1.068,8.51,-90.5,-2.7,-4.1,2198,100.3,7.6,13.1,
25.75796649,-80.37383301,23:37.0,9/25/20,8,2.424,269.41,-6.859549699,1.2,298.5,292.74,2.81,9.4,37.5,0,2.23,2.23,89,70,494.6,15.9,-4.4,D,466.1,20,8.527,2,2.36,194,347.05,-80.37385209,25.75804123,0,0,1,N,2.031715,74,74,11,250,250,348.4066,0,9999.99,2.25,2.377,2,9,31,0,31,0.83,1512.24232,9/25/20,12:03:49,29.55,1.661,0.83,1.07,8.52,-90.8,-3.7,-0.8,2095,100.8,7.65,13.1,
25.75797112,-80.37384344,23:38.0,9/25/20,8,2.403,279.21,-6.859549699,1.2,310.3,304.68,2.44,15.5,37.5,0,2.31,2.31,89,70,494.6,15.9,-4.4,D,466.1,20,7.844,2,2.36,194,353.66,-80.37385209,25.75804123,0,0,1,N,0.9882842,72,72,11,250,250,354.037,0,9999.99,2.33,2.456872,2,9,31.1,0,31,0.83,1512.24232,9/25/20,12:03:49,29.55,1.661,0.83,1.07,8.52,-90.8,-3.7,-0.8,2095,100.8,7.65,13.1,
25.75797728,-80.37385297,23:39.0,9/25/20,8,2.235,284.45,-6.859549699,1.2,328,322.58,4.19,11.4,37.4,0,2.32,2.32,89,67,494.5,15.9,-4.2,D,486.5,20,7.111,2,2.24,193,0.71,-80.37385209,25.75804123,0,0,1,N,9.97E-04,87,87,11,250,250,359.9936,0,9999.99,2.37,2.492165,2,9,31,0,31.10000038,0.83,1512.4648,9/25/20,12:03:50,29.48,1.663,0.83,1.084,8.52,-91.2,-1.5,-5.2,424,101,7.67,12.8,
25.75798481,-80.37385978,23:40.0,9/25/20,8,2.248,298.77,-6.859549699,1.2,342.8,337.6,4.56,12.1,37.4,0,2.36,2.36,89,67,494.5,15.9,-4.2,D,486.5,20,6.32,2,2.2,193,7,-80.37385209,25.75804123,0,0,1,N,0.7225876,84,84,11,237,237,5.089134,0,9999.99,2.4,2.524733,2,9,31.1,0,31,0.84,1512.2527,9/25/20,12:03:52,29.23,1.672,0.84,1.052,8.52,-91.2,-2.4,-1.6,1060,101.3,7.72,13.1,
25.75799238,-80.37386454,23:41.0,9/25/20,7,2.204,311.71,-6.859549699,1.2,356.9,351.98,3.93,10,37.4,0,2.47,2.47,89,67,494.5,15.9,-4.2,D,486.5,20,5.573,2,2.19,193,12.93,-80.37385209,25.75804123,0,0,1,N,1.22886,81,81,11,194,194,8.731697,0,9999.99,2.5,2.627,2,9,31.1,0,31,0.84,1512.2527,9/25/20,12:03:52,29.23,1.672,0.84,1.052,8.52,-91.2,-2.4,-1.6,1060,101.3,7.72,13.1,
25.75800285,-80.37386803,23:42.0,9/25/20,8,2.138,330.1,-6.859549699,1.2,7.9,3.23,5.24,7.25,37.4,0,2.44,2.44,89,67,494.5,15.9,-4.2,D,486.5,20,4.556,2,2.19,193,20.5,-80.37385209,25.75804123,0,0,1,N,1.602478,88,88,11,159,159,11.33046,0,9999.99,2.49,2.617,2,9,31.1,0,31.10000038,0.85,1512.48534,9/25/20,12:03:54,28.68,1.688,0.85,1.082,8.53,-91.3,0.1,-5.2,-511,101.3,7.8,13,
25.75801374,-80.37386908,23:43.0,9/25/20,8,2.145,341.72,-6.859549699,1.2,13.3,8.76,4.11,7.64,37.4,0,2.43,2.43,89,65,494.5,15.9,-4,D,503.3,20,3.497,2,2.22,193,29.1,-80.37385209,25.75804123,0,0,1,N,1.71825,82,82,11,141,141,12.12654,0,9999.99,2.47,2.597,2,9,31.1,0,31.10000038,0.85,1512.48534,9/25/20,12:03:54,28.68,1.688,0.85,1.082,8.53,-91.3,0.1,-5.2,-511,101.3,7.8,13,
25.75802715,-80.37386769,23:44.0,9/25/20,8,2.66,352.1,-6.859549699,1.2,17.7,13.26,3.23,6.55,37.4,0,2.41,2.41,89,65,494.5,15.9,-4,D,503.3,21,5.724,2,2.43,192,277.22,-80.37392439,25.75803362,0,0,1,N,1.5043,76,76,11,5,5,273.9854,0,9999.99,2.44,2.567,2,9,31,0,31.10000038,0.85,1512.48552,9/25/20,12:03:55,28.35,1.699,0.85,1.061,8.53,-91.2,-0.2,-4.9,-927,101.3,7.84,13.1,
25.75803989,-80.37386704,23:45.0,9/25/20,7,2.748,359.18,-6.859549699,1.2,7.6,2.93,2.83,-3.13,37.4,0,2.38,2.38,89,65,494.5,15.9,-4,D,503.3,21,5.786,2,2.43,192,263.08,-80.37392439,25.75803362,0,0,1,N,0.129863,74,74,11,5,5,264.2644,0,9999.99,2.41,2.537,2,9,31,0,31,0.86,1512.27314,9/25/20,12:03:57,28.02,1.708,0.86,1.07,8.53,-91,-0.4,-4.5,-4234,100.9,7.85,13.2,
25.75805146,-80.37386779,23:46.0,9/25/20,7,2.198,1.91,-6.859549699,1.2,351.1,346.06,4.44,5.36,37.4,0,2.36,2.36,89,65,494.5,15.9,-4,D,503.3,21,6.004,2,2.27,191,250.71,-80.37392439,25.75803362,0,0,1,N,1.167605,84,84,11,5,5,255.0295,0,9999.99,2.4,2.527,2,9,31,0,31,0.86,1512.27314,9/25/20,12:03:57,28.02,1.708,0.86,1.07,8.53,-91,-0.4,-4.5,-4234,100.9,7.85,13.2,
25.75806075,-80.37387159,23:47.0,9/25/20,7,2.054,358.03,-6.859549699,1.2,333.5,328.15,5.26,4.93,37.4,0,2.38,2.39,89,59,494.4,15.9,-3.7,D,550.3,21,6.088,2,2.18,191,240.29,-80.37392439,25.75803362,0,0,1,N,2.273353,89,89,11,5,5,247.4703,0,9999.99,2.43,2.557,2,9,30.9,0,31,0.86,1512.27341,9/25/20,12:03:58,27.97,1.711,0.86,1.073,8.53,-91,-1.9,-1.8,-590,100.7,7.85,12.9,
25.75806753,-80.37387681,23:48.0,9/25/20,8,2.094,345.58,-6.859549699,1.2,317.4,311.86,3.79,4.98,37.4,0,2.38,2.39,89,59,494.4,15.9,-3.7,D,550.3,21,6.076,2,2.18,191,231.64,-80.37392439,25.75803362,0,0,1,N,3.10395,80,80,11,5,5,242.126,0,9999.99,2.43,2.557,2,9,30.9,0,30.89999962,0.86,1512.05067,9/25/20,12:04:00,28,1.71,0.86,1.056,8.53,-91,-0.9,-3.3,-538,100.2,7.8,13.1,
25.75807318,-80.37388385,23:49.0,9/25/20,8,2.166,332.42,-6.859549699,1.2,301.7,295.98,4.17,4.75,37.3,0,2.4,2.4,89,59,494.4,15.9,-3.7,D,550.3,21,5.985,2,2.13,191,222.7,-80.37392439,25.75803362,0,0,1,N,3.827773,82,82,11,5,5,237.7605,0,9999.99,2.44,2.567,2,9,30.9,0,30.89999962,0.86,1512.05067,9/25/20,12:04:00,28,1.71,0.86,1.056,8.53,-91,-0.9,-3.3,-538,100.2,7.8,13.1,
25.75807779,-80.37389326,23:50.0,9/25/20,8,2.12,320.04,-6.859549699,1.2,283.4,277.37,4.86,5.72,37.4,0,2.41,2.41,89,60,494.3,15.9,-3.7,D,543,21,5.817,2,2.11,191,212.41,-80.37392439,25.75803362,0,0,1,N,4.481862,89,89,11,5,5,234.0745,0,9999.99,2.46,2.587,2,9,30.8,0,30.89999962,0.86,1512.05009,9/25/20,12:04:01,28,1.709,0.86,1.058,8.53,-90.9,-0.3,-6.7,370,100,7.79,13.1,
25.75807936,-80.37390398,23:51.0,9/25/20,8,2.043,303.23,-6.859549699,1.2,267.4,260.91,5.2,5.54,37.4,0,2.44,2.44,89,60,494.3,15.9,-3.7,D,543,22,2.878,2,2.08,191,314.74,-80.37392439,25.75809757,0,0,1,N,2.158711,88,88,11,250,250,344.9044,0,9999.99,2.48,2.607,2,9,30.8,0,30.79999924,0.86,1511.82647,9/25/20,12:04:02,28,1.71,0.86,1.042,8.52,-90.7,-0.9,-4.5,-2787,99.8,7.77,13,
25.75807906,-80.37391465,23:52.0,9/25/20,8,2.097,285.36,-6.859549699,1.2,267.5,261.01,3.52,15.5,37.3,0,2.43,2.44,89,60,494.3,15.9,-3.7,D,543,22,2.278,2,2.08,191,334.63,-80.37392439,25.75809757,0,0,1,N,1.091608,78,78,11,250,250,352.2327,0,9999.99,2.46,2.58924,2,9,30.8,0,30.79999924,0.85,1511.81674,9/25/20,12:04:04,28.62,1.689,0.85,1.067,8.51,-90.1,-2.5,-0.8,-2748,99.5,7.67,12.9,
25.75807821,-80.37392517,23:53.0,9/25/20,8,2.075,275.36,-6.859549699,1.07,275.8,269.57,0.54,2.29,37.4,0,2.43,2.43,89,60,494.3,15.9,-3.7,D,543,23,2.154,2,2.13,128,2.07,-80.37392439,25.75809757,0,0,6,N,1.091608,60,60,11,250,250,358.8609,0,9999.99,2.46,2.58924,2,9,30.8,0,30.79999924,0.85,1511.81674,9/25/20,12:04:04,28.62,1.689,0.85,1.067,8.51,-90.1,-2.5,-0.8,-2748,99.5,7.67,12.9,
25.75807894,-80.37393416,23:54.0,9/25/20,8,1.738,267.41,-6.859549699,1.07,289.3,283.39,4.35,-0.36,37.4,0,2.28,2.28,89,54,494.3,15.9,-3.4,D,602.4,23,2.292,2,2.1,128,25.27,-80.37392439,25.75809757,0,0,6,N,1.091608,82,82,11,250,250,22.35988,0,9999.99,2.32,2.447,2,9,30.8,0,30.79999924,0.84,1511.80561,9/25/20,12:04:05,29.01,1.676,0.84,1.099,8.51,-90.1,-1.7,-2.1,178,99.6,7.62,13.1,
25.75807969,-80.37393926,23:55.0,9/25/20,8,1.2,268.04,-6.859549699,1.07,296.8,291.01,5.3,1.4,37.4,0,2.11,2.12,89,54,494.3,15.9,-3.4,D,602.4,23,2.483,2,1.8,128,36.83,-80.37392439,25.75809757,0,0,6,N,1.091608,88,88,11,250,250,34.57753,0,9999.99,2.16,2.287,2,9,30.8,0,30.79999924,0.84,1511.80601,9/25/20,12:04:07,29.24,1.67,0.84,1.057,8.51,-90.3,-1.8,-4.2,-325,99.7,7.6,13.1,
25.75808058,-80.37394376,23:56.0,9/25/20,8,1.022,273.8,-6.859549699,1.07,302.3,296.59,5.54,-0.54,37.3,0.01,1.98,1.99,89,54,494.3,15.9,-3.4,D,602.4,23,2.707,2,1.51,128,45.77,-80.37392439,25.75809757,0,0,6,N,1.091608,90,90,11,250,250,44.06731,0,9999.99,2.03,2.157,2,9,30.8,0,30.79999924,0.84,1511.80601,9/25/20,12:04:07,29.24,1.67,0.84,1.057,8.51,-90.3,-1.8,-4.2,-325,99.7,7.6,13.1,
25.75808152,-80.37394736,23:57.0,9/25/20,8,0.886,277.09,-6.859549699,1.07,307.5,301.85,4.59,-2.77,37.3,0.01,1.8,1.81,89,21,494.2,16,-1.3,D,1548.6,23,2.912,2,1.25,128,52.19,-80.37392439,25.75809757,0,0,6,N,1.091608,85,85,11,250,250,50.89118,0,9999.99,1.84,1.967,2,9,30.8,0,30.79999924,0.83,1511.79701,9/25/20,12:04:08,29.33,1.667,0.83,1.05,8.51,-90.3,-2,-6.4,-1271,99.9,7.6,13.1,
25.7580828,-80.37394947,23:58.0,9/25/20,8,0.66,277.09,-6.859549699,1.07,312.6,307.01,4.04,-2.37,37.4,0,1.8,1.8,89,21,494.2,16,-1.3,D,1548.6,23,3.002,2,1.06,128,56.82,-80.37392439,25.75809757,0,0,6,N,1.091608,81,81,11,250,250,55.76093,0,9999.99,1.84,1.967,2,9,30.8,0,30.79999924,0.83,1511.79596,9/25/20,12:04:10,29.41,1.664,0.83,1.045,8.51,-90.3,-1.6,-5.4,648,99.9,7.6,12.9,
25.75808391,-80.37394891,23:59.0,9/25/20,7,0.308,277.09,-6.859549699,1.2,317,311.45,3.92,-2.64,37.3,0,1.49,1.49,89,21,494.2,16,-1.3,D,1548.6,23,2.889,2,0.9,128,58.26,-80.37392439,25.75809757,0,0,6,N,1.091608,81,81,11,250,250,57.31128,0,9999.99,1.52,1.647,2,9,30.9,0,30.79999924,0.83,1511.79596,9/25/20,12:04:10,29.41,1.664,0.83,1.045,8.51,-90.3,-1.6,-5.4,648,99.9,7.6,12.9,
25.7580851,-80.37395086,24:00.0,9/25/20,7,0.383,277.09,-6.859549699,1.2,321.2,315.7,4.2,-2.29,37.3,0,1.45,1.45,89,21,494.2,16,-1.3,D,1548.6,23,2.992,2,0.76,128,62.38,-80.37392439,25.75809757,0,0,6,N,1.091608,82,82,11,250,250,61.58832,0,9999.99,1.49,1.617,2,9,30.9,0,30.89999962,0.83,1512.01914,9/25/20,12:04:11,29.44,1.664,0.83,1.034,8.51,-90.5,-2.7,-2.8,4534,100,7.6,13,
25.75808549,-80.37395274,24:01.0,9/25/20,8,0.408,277.09,-6.859549699,1.07,325.4,319.95,4.72,-2.57,37.3,0,1.45,1.45,89,21,494.1,16,-1.3,D,1553.2,23,3.14,2,0.66,128,64.68,-80.37392439,25.75809757,0,0,6,N,1.091608,85,85,11,250,250,64.02874,0,9999.99,1.49,1.617,2,9,30.9,0,30.89999962,0.83,1512.01921,9/25/20,12:04:13,29.45,1.663,0.83,1.036,8.51,-90.6,-1.7,-8.2,1690,100,7.6,13.1,
25.75808592,-80.37395482,24:02.0,9/25/20,8,0.442,277.09,-6.859549699,1.07,328,322.58,4.96,-2.12,37.3,0,1.26,1.26,89,21,494.1,16,-1.3,D,1553.2,23,3.313,2,0.54,128,66.97,-80.37392439,25.75809757,0,0,6,N,1.091608,87,87,11,250,250,66.39741,0,9999.99,1.3,1.427,2,9,30.9,0,30.89999962,0.83,1512.01921,9/25/20,12:04:13,29.45,1.663,0.83,1.036,8.51,-90.6,-1.7,-8.2,1690,100,7.6,13.1,
25.75808863,-80.37395764,24:03.0,9/25/20,8,0.761,277.09,-6.859549699,1.07,330.7,325.32,4.82,-1.73,37.3,0,1.23,1.23,89,21,494.1,16,-1.3,D,1553.2,23,3.475,2,0.48,128,73.37,-80.37392439,25.75809757,0,0,6,N,1.091608,86,86,11,250,250,72.95466,0,9999.99,1.27,1.397,2,9,30.9,0,30.89999962,0.83,1512.01967,9/25/20,12:04:14,29.46,1.663,0.83,1.03,8.51,-90.5,-1.3,-5,-985,100.1,7.6,13,
25.75808955,-80.3739581,24:04.0,9/25/20,8,0.39,277.09,-6.859549699,1.07,332.5,327.14,4.41,-3.17,37.3,0,1.15,1.15,89,21,494.1,16,-1.3,D,1555.5,23,3.492,2,0.43,128,75.2,-80.37392439,25.75809757,0,0,6,N,1.091608,84,84,11,250,250,74.82133,0,9999.99,1.19,1.317,2,9,31,0,30.89999962,0.83,1512.01958,9/25/20,12:04:16,29.51,1.661,0.83,1.042,8.52,-90.7,-0.5,-4.7,295,100,7.59,13.1,
25.75809012,-80.37395889,24:05.0,9/25/20,8,0.277,277.09,-6.859549699,1.07,334.2,328.86,4.24,-2.19,37.3,0,1.06,1.06,89,21,494.1,16,-1.3,D,1555.5,23,3.553,2,0.43,128,76.52,-80.37392439,25.75809757,0,0,6,N,1.091608,82,82,11,250,250,76.14825,0,9999.99,1.1,1.227,2,9,31,0,30.89999962,0.83,1512.01958,9/25/20,12:04:16,29.51,1.661,0.83,1.042,8.52,-90.7,-0.5,-4.7,295,100,7.59,13.1,
25.75809154,-80.37396055,24:06.0,9/25/20,8,0.47,277.09,-6.859549699,1.07,336.8,331.5,4.24,-2.39,37.3,0,1.05,1.05,89,21,494.1,16,-1.3,D,1555.5,23,3.683,2,0.38,128,79.51,-80.37392439,25.75809757,0,0,6,N,1.091608,82,82,11,250,250,79.18551,0,9999.99,1.09,1.217,2,9,31,0,31,0.83,1512.24233,9/25/20,12:04:17,29.53,1.66,0.83,1.022,8.52,-90.9,-1.8,-5.4,1004,99.9,7.58,13.1,
25.75809393,-80.37396216,24:07.0,9/25/20,8,0.639,277.09,-6.859549699,1.07,339,333.74,4.24,-2.55,37.2,0,1,1,89,21,494.1,16,-1.3,D,1555.5,23,3.806,2,0.33,128,83.89,-80.37392439,25.75809757,0,0,6,N,1.091608,82,82,11,250,250,83.59583,0,9999.99,1.04,1.167,2,9,31,0,31,0.83,1512.24232,9/25/20,12:04:19,29.57,1.66,0.83,1.027,8.52,-91,-1.6,-7.6,-232,99.9,7.57,13.1,
25.75809465,-80.37396302,24:08.1,9/25/20,8,0.329,277.09,-6.859549699,1.07,340,334.75,4.39,-2.33,37.2,0,0.94,0.94,77,21,494,16,-1.3,D,1560.2,23,3.882,2,0.31,128,85.21,-80.37392439,25.75809757,0,0,6,N,1.091608,83,83,11,250,250,84.96989,0,9999.99,0.98,1.107,2,9,31,0,31,0.83,1512.24232,9/25/20,12:04:19,29.57,1.66,0.83,1.027,8.52,-91,-1.6,-7.6,-232,99.9,7.57,13.1,
25.75809566,-80.37396374,24:09.0,9/25/20,8,0.118,277.09,-6.859549699,1.07,341.4,336.18,4.24,-2.49,37.2,0,0.88,0.88,77,21,494,16,-1.3,D,1560.2,23,3.946,2,0.31,128,86.91,-80.37392439,25.75809757,0,0,6,N,1.091608,82,82,11,250,250,86.67589,0,9999.99,0.92,1.047,2,9,31,0,31,0.83,1512.24232,9/25/20,12:04:20,29.58,1.659,0.83,1.027,8.52,-91.1,-1.4,-8.7,-1559,99.9,7.57,13,
25.75809447,-80.37396304,24:10.1,9/25/20,8,0.194,277.09,-6.859549699,1.07,343.8,338.62,4.35,-2.47,37.2,0,0.82,0.82,77,21,494,16,-1.3,D,1560.2,23,3.885,2,0.29,128,84.92,-80.37392439,25.75809757,0,0,6,N,1.091608,83,83,11,250,250,84.69447,0,9999.99,0.86,0.987,2,9,31.1,0,31,0.83,1512.24232,9/25/20,12:04:22,29.6,1.659,0.83,1.035,8.53,-91.3,-2.2,-5.1,1005,99.8,7.57,13,
25.75809459,-80.37396281,24:11.1,9/25/20,8,0.076,277.09,-6.859549699,1.07,344.7,339.53,4.22,-2.36,37.2,0,0.78,0.78,89,21,494,16,-1.3,D,1559,23,3.861,2,0.29,128,85.08,-80.37392439,25.75809757,0,0,6,N,1.091608,82,82,11,250,250,84.8502,0,9999.99,0.82,0.947,0,0,31.1,0,31.10000038,0.83,1512.4648,9/25/20,12:04:23,29.61,1.659,0.83,1.049,8.53,-91.3,-1.4,-7,-2982,99.7,7.55,13.1,
25.7580936,-80.37396201,24:12.1,9/25/20,8,0.039,277.09,-6.859549699,1.07,346.1,340.96,4.34,-2.46,37.2,0,0.75,0.75,89,21,494,16,-1.3,D,1559,23,3.794,2,0.25,128,83.32,-80.37392439,25.75809757,0,0,6,N,1.091608,83,83,11,250,250,83.12112,0,9999.99,0.79,0.917,2,9,31.1,0,31.10000038,0.83,1512.4648,9/25/20,12:04:23,29.61,1.659,0.83,1.049,8.53,-91.3,-1.4,-7,-2982,99.7,7.55,13.1,
25.75809297,-80.37396193,24:13.1,9/25/20,8,0.261,277.09,-6.859549699,1.07,348,342.9,4.21,-2.45,37.2,0,0.7,0.7,89,21,494,16,-1.3,D,1559,23,3.795,2,0.24,128,82.25,-80.37392439,25.75809757,0,0,6,N,1.091608,82,82,11,250,250,82.06197,0,9999.99,0.74,0.867,2,9,31.1,0,31.10000038,0.83,1512.46484,9/25/20,12:04:24,29.63,1.658,0.83,1.038,8.53,-91.5,-1.1,-2.7,-2592,99.7,7.55,12.9,
25.75809296,-80.37396211,24:14.1,9/25/20,8,0.344,277.09,-6.859549699,1.07,348.9,343.81,4.21,-2.62,37.3,0,0.7,0.7,89,21,494,16,-1.3,D,1559,23,3.812,2,0.22,128,82.28,-80.37392439,25.75809757,0,0,6,N,1.091608,82,82,11,250,250,82.32858,0,9999.99,0.74,0.867,2,9,31.1,0,31.10000038,0.83,1512.46486,9/25/20,12:04:26,29.66,1.656,0.83,1.032,8.53,-91.6,-1,-6.2,-2549,99.7,7.55,12.9,
25.75809018,-80.37396177,24:15.1,9/25/20,8,0.349,277.09,-6.859549699,1.07,350.4,345.34,4.22,-2.58,37.2,0,0.69,0.7,89,21,493.9,16,-1.3,D,1542.5,23,3.832,2,0.24,128,77.62,-80.37392439,25.75809757,0,0,6,N,1.091608,82,82,11,250,250,77.43068,0,9999.99,0.73,0.857,0,0,31.1,0,31.10000038,0.83,1512.46486,9/25/20,12:04:26,29.66,1.656,0.83,1.032,8.53,-91.6,-1,-6.2,-2549,99.7,7.55,12.9,
25.7580908,-80.3739619,24:16.1,9/25/20,8,0.087,277.09,-6.859549699,1.07,350.9,345.85,4.22,-2.79,37.3,0.01,0.67,0.68,89,21,493.9,16,-1.3,D,1542.5,23,3.832,2,0.25,128,78.66,-80.37392439,25.75809757,0,0,6,N,1.091608,82,82,11,250,250,78.59449,0,9999.99,0.71,0.837,2,9,31.1,0,31.10000038,0.83,1512.46552,9/25/20,12:04:27,29.67,1.656,0.83,1.04,8.53,-91.5,-0.7,-6.6,-559,99.8,7.55,13.1,
25.75809128,-80.37396286,24:17.1,9/25/20,8,0.067,277.09,-6.859549699,1.07,352.6,347.59,4.45,-2.43,37.2,0,0.53,0.53,89,21,493.9,16,-1.3,D,1542.5,23,3.915,2,0.02,128,79.7,-80.37392439,25.75809757,0,0,6,N,1.091608,83,83,11,250,250,79.71919,0,9999.99,0.57,0.697,2,9,31.1,0,31.10000038,0.83,1512.46536,9/25/20,12:04:29,29.69,1.656,0.83,1.043,8.53,-91.8,-2,-3.2,-83,100,7.56,13.1,
25.75809309,-80.37396222,24:18.1,9/25/20,8,0.133,277.09,-6.859549699,1.07,354.7,349.73,4.45,-2.43,37.2,0,0.51,0.51,89,21,493.9,16,-1.3,D,1542.5,23,3.821,2,0.06,128,82.51,-80.37392439,25.75809757,0,0,6,N,1.091608,84,84,11,250,250,82.51682,0,9999.99,0.55,0.677,2,9,31.2,0,31.10000038,0.83,1512.46536,9/25/20,12:04:29,29.69,1.656,0.83,1.043,8.53,-91.8,-2,-3.2,-83,100,7.56,13.1,
25.75809368,-80.37396278,24:19.1,9/25/20,8,0.044,277.09,-6.859549699,1.2,355.1,350.14,4.45,-2.49,37.2,0,0.5,0.5,89,21,493.9,16,-1.3,D,1540.1,23,3.869,2,0.08,128,83.59,-80.37392439,25.75809757,0,0,6,N,1.091608,84,84,11,250,250,83.53581,0,9999.99,0.54,0.667,2,9,31.2,0,31.20000076,0.83,1512.68719,9/25/20,12:04:31,29.7,1.656,0.83,1.037,8.54,-92.1,0.4,-4.8,2780,100.1,7.57,13.1,
25.75809469,-80.37396286,24:20.1,9/25/20,8,0.309,277.09,-6.859549699,1.07,356.5,351.57,4.33,-2.35,37.2,0,0.65,0.65,89,21,493.9,16,-1.3,D,1540.1,23,3.866,2,0.28,128,85.24,-80.37392439,25.75809757,0,0,6,N,1.091608,84,84,11,250,250,85.2496,0,9999.99,0.69,0.817,2,9,31.2,0,31.20000076,0.83,1512.68719,9/25/20,12:04:31,29.7,1.656,0.83,1.037,8.54,-92.1,0.4,-4.8,2780,100.1,7.57,13.1,
25.75809509,-80.37396205,24:21.1,9/25/20,8,0.292,277.09,-6.859549699,1.07,357.1,352.18,4.2,-2.66,37.2,0,0.64,0.64,89,21,493.9,16,-1.3,D,1540.1,23,3.782,2,0.49,128,85.81,-80.37392439,25.75809757,0,0,6,N,1.091608,82,82,11,250,250,85.50791,0,9999.99,0.68,0.807,0,0,31.2,0,31.20000076,0.83,1512.68662,9/25/20,12:04:33,29.7,1.655,0.83,1.045,8.53,-91.9,-0.9,-5.5,227,100.3,7.59,13.1,
25.75809662,-80.37396239,24:22.1,9/25/20,8,0.106,277.09,-6.859549699,1.07,358.1,353.21,4.2,-2.65,37.1,0,0.64,0.64,89,22,493.8,16,-1.3,D,1496.3,23,3.807,2,0.33,128,88.41,-80.37392439,25.75809757,0,0,6,N,1.091608,82,82,11,250,250,88.17244,0,9999.99,0.68,0.807,2,9,31.2,0,31.20000076,0.83,1512.68662,9/25/20,12:04:33,29.7,1.655,0.83,1.045,8.53,-91.9,-0.9,-5.5,227,100.3,7.59,13.1,
25.75809694,-80.37396372,24:23.1,9/25/20,8,0.039,277.09,-6.859549699,1.07,0.1,355.25,4.2,-2.25,37.2,0,0.61,0.61,89,22,493.8,16,-1.3,D,1496.3,23,3.94,2,0.09,128,88.98,-80.37392439,25.75809757,0,0,6,N,1.091608,82,82,11,250,250,88.9016,0,9999.99,0.65,0.777,2,9,31.2,0,31.20000076,0.83,1512.68661,9/25/20,12:04:34,29.69,1.656,0.83,1.015,8.53,-91.9,-1.2,-1.9,68,100.4,7.6,12.9,
25.7580979,-80.37396482,24:24.1,9/25/20,8,0.305,277.09,-6.859549699,1.07,0.2,355.35,4.42,-2.71,37.1,0,0.59,0.59,89,22,493.8,16,-1.3,D,1496.3,23,4.05,2,0.11,128,90.53,-80.37392439,25.75809757,0,0,6,N,1.091608,84,84,11,250,250,90.43707,0,9999.99,0.63,0.757,2,9,31.2,0,31.20000076,0.83,1512.68661,9/25/20,12:04:36,29.7,1.656,0.83,1.033,8.54,-92.1,-1.1,-1.9,-2294,100.6,7.61,13,
25.75809769,-80.37396481,24:25.1,9/25/20,8,0.336,277.09,-6.859549699,1.07,1.9,357.09,4.55,-2.3,37.1,0,0.56,0.56,89,22,493.8,16,-1.3,D,1496.3,23,4.048,2,0.09,128,90.19,-80.37392439,25.75809757,0,0,6,N,1.091608,84,84,11,250,250,90.16103,0,9999.99,0.6,0.727,2,9,31.2,0,31.20000076,0.83,1512.68661,9/25/20,12:04:36,29.7,1.656,0.83,1.033,8.54,-92.1,-1.1,-1.9,-2294,100.6,7.61,13,
25.75809752,-80.37396396,24:26.1,9/25/20,8,0.165,277.09,-6.859549699,1.07,2.2,357.4,4.45,-2.62,37.1,0,0.56,0.56,89,21,493.8,16,-1.3,D,1515.1,23,3.964,2,0.1,128,89.91,-80.37392439,25.75809757,0,0,6,N,1.091608,84,84,11,250,250,89.85113,0,9999.99,0.6,0.727,2,9,31.2,0,31.20000076,0.83,1512.68668,9/25/20,12:04:37,29.7,1.655,0.83,1.035,8.54,-92.3,-1.3,-5.8,1020,100.7,7.62,13.1,
25.75809657,-80.37396407,24:27.5,9/25/20,8,0.126,277.09,-6.859549699,1.07,3.5,358.73,4.32,-2.56,37.1,0,0.59,0.59,89,21,493.8,16,-1.3,D,1515.1,23,3.976,2,0.1,128,88.4,-80.37392439,25.75809757,0,0,6,N,1.091608,83,83,11,250,250,88.6571,0,9999.99,0.63,0.757,2,9,31.2,0,31.20000076,0.83,1512.68669,9/25/20,12:04:39,29.71,1.656,0.83,1.033,8.54,-92.3,-1.2,-0.5,-245,100.8,7.63,13.2,
25.75809719,-80.37396477,24:28.5,9/25/20,8,0.276,277.09,-6.859549699,1.07,4.2,359.45,4.32,-2.86,37.1,0,0.6,0.6,89,21,493.8,16,-1.3,D,1515.1,23,4.045,2,0.19,128,89.4,-80.37392439,25.75809757,0,0,6,N,1.091608,83,83,11,250,250,89.38273,0,9999.99,0.64,0.767,0,0,31.3,0,31.29999924,0.83,1512.90772,9/25/20,12:04:40,29.71,1.655,0.83,1.036,8.54,-92.2,-2.2,-2.4,836,100.9,7.63,13.1,
25.75809737,-80.37396435,24:29.6,9/25/20,8,0.234,277.09,-6.859549699,1.07,5.6,0.88,4.32,-2.52,37.1,0,0.6,0.6,89,21,493.7,16,-1.3,D,1513.8,23,4.003,2,0.23,128,89.69,-80.37392439,25.75809757,0,0,6,N,1.091608,83,83,11,250,250,89.57963,0,9999.99,0.64,0.767,2,9,31.3,0,31.29999924,0.83,1512.90772,9/25/20,12:04:42,29.71,1.655,0.83,1.053,8.54,-92.4,-0.6,-2,55,101.1,7.65,13,
25.75809778,-80.37396425,24:30.6,9/25/20,8,0.108,277.09,-6.859549699,1.07,6.6,1.9,4.32,-2.49,37.1,0,0.56,0.56,89,21,493.7,16,-1.3,D,1513.8,23,3.991,2,0.09,128,90.34,-80.37392439,25.75809757,0,0,6,N,1.091608,83,83,11,250,250,90.37972,0,9999.99,0.6,0.727,2,9,31.3,0,31.29999924,0.83,1512.90772,9/25/20,12:04:42,29.71,1.655,0.83,1.053,8.54,-92.4,-0.6,-2,55,101.1,7.65,13,
25.75809652,-80.37396307,24:31.6,9/25/20,8,0.357,277.09,-6.859549699,1.07,7.1,2.41,4.42,-2.62,37.1,0,0.55,0.55,89,21,493.7,16,-1.3,D,1513.8,23,3.876,2,0.05,128,88.28,-80.37392439,25.75809757,0,0,6,N,1.091608,84,84,11,250,250,88.26243,0,9999.99,0.59,0.7169999,2,9,31.3,0,31.29999924,0.83,1512.90773,9/25/20,12:04:43,29.71,1.655,0.83,1.034,8.54,-92.5,-1.7,-1.7,-698,101.3,7.66,13.1,
25.75809389,-80.37396057,24:32.6,9/25/20,8,0.063,277.09,-6.859549699,1.07,7.8,3.13,4.44,-2.51,37.1,0,0.53,0.53,89,21,493.7,16,-1.3,D,1522.7,23,3.646,2,0.23,128,83.56,-80.37392439,25.75809757,0,0,6,N,1.091608,84,84,11,250,250,83.35764,0,9999.99,0.57,0.697,0,0,31.3,0,31.29999924,0.83,1512.90778,9/25/20,12:04:44,29.71,1.655,0.83,1.041,8.54,-92.4,-2,-2.5,536,101.4,7.67,13.2,
25.75809252,-80.37395946,24:33.6,9/25/20,8,0.06,277.09,-6.859549699,1.07,9,4.36,4.48,-2.28,37.1,0,0.52,0.52,89,21,493.7,16,-1.3,D,1522.7,23,3.557,2,0.17,128,80.92,-80.37392439,25.75809757,0,0,6,N,1.091608,84,84,11,250,250,80.76788,0,9999.99,0.56,0.687,2,9,31.3,0,31.29999924,0.83,1512.90783,9/25/20,12:04:46,29.71,1.655,0.83,1.04,8.55,-92.8,1.9,-5,-1758,101.5,7.68,13,
25.75809181,-80.37396065,24:34.6,9/25/20,8,0.389,277.09,-6.859549699,1.07,9.2,4.56,4.37,-2.58,37.1,0,0.54,0.54,89,21,493.7,16,-1.3,D,1522.7,23,3.688,2,0.14,128,80,-80.37392439,25.75809757,0,0,6,N,1.091608,83,83,11,250,250,79.87737,0,9999.99,0.58,0.707,2,9,31.3,0,31.29999924,0.83,1512.90783,9/25/20,12:04:46,29.71,1.655,0.83,1.04,8.55,-92.8,1.9,-5,-1758,101.5,7.68,13,
25.75809036,-80.37396098,24:35.6,9/25/20,8,0.428,277.09,-6.859549699,1.07,9.7,5.08,4.37,-2.57,37.1,0,0.54,0.54,89,21,493.7,16,-1.3,D,1522.7,23,3.751,2,0.12,128,77.66,-80.37392439,25.75809757,0,0,6,N,1.091608,83,83,11,250,250,77.54726,0,9999.99,0.58,0.707,0,0,31.3,0,31.29999924,0.83,1512.90772,9/25/20,12:04:48,29.72,1.654,0.83,1.043,8.55,-92.8,-1.9,-4,-2050,101.7,7.69,13.1,
25.75809097,-80.37396235,24:36.6,9/25/20,8,0.202,277.09,-6.859549699,1.07,10.7,6.1,4.26,-2.69,37,0,0.54,0.54,89,21,493.7,16,-1.3,D,1511.5,23,3.873,2,0.2,128,79.08,-80.37392439,25.75809757,0,0,6,N,1.091608,83,83,11,250,250,78.91175,0,9999.99,0.58,0.707,0,0,31.3,0,31.29999924,0.83,1512.90772,9/25/20,12:04:48,29.72,1.654,0.83,1.043,8.55,-92.8,-1.9,-4,-2050,101.7,7.69,13.1,
25.75809257,-80.37396401,24:37.6,9/25/20,8,0.598,277.09,-6.859549699,1.07,11.2,6.61,4.36,-2.6,37.1,0,0.53,0.53,89,21,493.7,16,-1.3,D,1511.5,23,4.008,2,0.16,128,82.02,-80.37392439,25.75809757,0,0,6,N,1.091608,83,83,11,250,250,81.89943,0,9999.99,0.57,0.697,2,9,31.3,0,31.29999924,0.83,1512.90772,9/25/20,12:04:49,29.72,1.655,0.83,1.028,8.55,-92.9,-2.2,-0.9,914,101.8,7.7,13.1,
25.75809605,-80.37396665,24:38.6,9/25/20,8,0.677,277.09,-6.859549699,1.07,12.2,7.64,4.36,-2.36,37.1,0,0.52,0.52,89,21,493.7,16,-1.3,D,1511.5,23,4.235,2,0.24,128,87.71,-80.37392439,25.75809757,0,0,6,N,1.091608,83,83,11,250,250,87.59784,0,9999.99,0.56,0.687,2,9,31.3,0,31.29999924,0.83,1512.90772,9/25/20,12:04:51,29.72,1.654,0.83,1.044,8.55,-92.7,-0.8,-2.7,-3126,101.9,7.7,13.1,
25.75809638,-80.37396651,24:39.7,9/25/20,8,0.141,277.09,-6.859549699,1.07,12.6,8.04,4.47,-2.49,37.1,0,0.51,0.51,89,21,493.6,16,-1.3,D,1515.9,23,4.22,2,0.18,128,88.2,-80.37392439,25.75809757,0,0,6,N,1.091608,84,84,11,250,250,88.09222,0,9999.99,0.55,0.677,0,0,31.3,0,31.29999924,0.83,1512.90772,9/25/20,12:04:51,29.72,1.654,0.83,1.044,8.55,-92.7,-0.8,-2.7,-3126,101.9,7.7,13.1,
25.75809702,-80.37396677,24:40.7,9/25/20,8,0.029,277.09,-6.859549699,1.07,12.9,8.35,4.47,-2.69,37.1,0,0.51,0.51,89,21,493.6,16,-1.3,D,1515.9,23,4.245,2,0.13,128,89.18,-80.37392439,25.75809757,0,0,6,N,1.091608,84,84,11,250,250,89.07431,0,9999.99,0.55,0.677,2,9,31.3,0,31.29999924,0.83,1512.9078,9/25/20,12:04:52,29.72,1.655,0.83,1.037,8.56,-93.2,-1.4,1.1,-1453,102,7.71,13,
25.75809682,-80.37396668,24:41.7,9/25/20,8,0.136,277.09,-6.859549699,1.07,14,9.48,4.36,-2.24,37,0,0.51,0.51,89,21,493.6,16,-1.3,D,1515.9,23,4.237,2,0.29,128,88.88,-80.37392439,25.75809757,0,0,6,N,1.091608,83,83,11,250,250,88.69019,0,9999.99,0.55,0.677,0,0,31.3,0,31.29999924,0.83,1512.90779,9/25/20,12:04:54,29.72,1.655,0.83,1.022,8.55,-93.1,-1.9,-2.3,-980,102.1,7.72,13,
25.7580965,-80.37396607,24:42.7,9/25/20,8,0.269,277.09,-6.859549699,1.07,14.1,9.58,4.36,-2.59,37,0,0.5,0.5,89,21,493.6,16,-1.3,D,1515.9,23,4.176,2,0.04,128,88.37,-80.37392439,25.75809757,0,0,6,N,1.091608,83,83,11,250,250,88.37341,0,9999.99,0.54,0.667,2,9,31.3,0,31.29999924,0.83,1512.90779,9/25/20,12:04:54,29.72,1.655,0.83,1.022,8.55,-93.1,-1.9,-2.3,-980,102.1,7.72,13,
